[{"name":"A-Laden","address":"Brunnenstr. 7 , 10119 Berlin","info":"Anarchistischer Infoladen\nDo 18:00-22:00 (nach Bedarf Open End) und auf Anfrage","www":"http://www.a-laden.org/","email":"mailto:a-laden@free.de","telephone":"       Tel. + Fax: 030-394 61 67   ","lat":52.5307682,"lng":13.400651700000026},{"name":"A17","address":"Admiralstr. 17, 10999 Berlin","info":"Tagungs- und \nErbauungszentrum der KPD/RZ, Fachbereich Abendbrot. PaKü, Flohmarkt, \nSport, Veranstaltungen und Treffpunkt. Fremdnutzung auf\nAnfrage; kein Lärm!","email":"mailto:mehrzweckhalle@so36.net","telephone":"    ","lat":52.49642,"lng":13.415459999999939},{"name":"ABC Berlin","address":"Wilhelmstr. 9 , 10963 Berlin","info":"Anarchist Black Cross","www":"http://www.abc.tommyhaus.org/","email":"mailto:abc-berlin@tommyhaus.org","telephone":"       ","lat":52.5015,"lng":13.388879999999972},{"name":"Abstand","address":"Rigaerstr. 78, 10247 Berlin","info":"Mo 22:00 Montagstresen (abwechselnd Peace Punk, Blues, Freakmucke) + vegane Burger\nDi 21:00 Punk/Ska-Tresen, jd. 1. Di im Monat Spieleabend + vegan Thaifood\nMi 21:00 Punkrock-Tresen + Burritos (vegan oder Fleisch)\nDo 21:00 vegetarische Vokü + Kuchen\nFr jd. 3. Fr im Monat Offbeat-Tresen","telephone":" ","lat":52.51681000000001,"lng":13.464140000000043},{"name":"Ackerkeller","address":"Bergstr. 68, 10115 Berlin","info":"Di + Fr ab 22:00 LesBiSchwule Disse\njeden 2. Sa im Monat Female Jungle (FrauenLesben-Party)\njeden letzten Fr im Monat \"Homunculus\" (Gruftieparty)\njeden 4. Fr im Monat 19:30 öffentliches Plenum\neinmal monatlich gibt's Soliveranstaltungen","www":"http://www.ackerkeller.de/","telephone":"    Tel.: 030-2807216   ","lat":52.5315905,"lng":13.39411670000004},{"name":"ALB (Antifaschistische Linke Berlin)","address":"Postfach 580544, 10414 Berlin","info":"","www":"http://www.antifa.de/","email":"mailto:mail@antifa.de","telephone":"       Tel.: 030-2756 0756   Fax: 030-2756 0755   ","lat":52.52000659999999,"lng":13.404953999999975},{"name":"Ami* Curiae","address":"Prinzenallee 58 C, 13359 Berlin","info":"","www":"http://amicuriae.blogsport.eu/","telephone":"    ","lat":52.5579723,"lng":13.385206499999981},{"name":"Anti-Atom-Plenum","address":"Waldemarstr. 46, 10999 Berlin","info":"Adresse ist nur Postadresse!Di 20:00 Treffen Waldemarstr. 46","www":"http://squat.net/aap-berlin/","email":"mailto:aap-berlin@squat.net","telephone":"       ","lat":52.5032337,"lng":13.42028240000002},{"name":"Anti-Diskriminierungsbüro (ADB) Berlin e.V.","address":"Greifswalder Str. 4, 10405 Berlin","info":"Beratung und Hilfe für diskriminierte Menschen, vor allem Flüchtlinge und MigrantInnen.Mo 10:00-13:00; Di und Do 17:00-19:00; Fr 18:00-20:00 (Jugend im ADB)\n","www":"http://www.paritaet.org/via/member/adb-berlin.htm","email":"mailto:RRassouli@diw.de","telephone":"       Tel. + Fax: 030-2042511   ","lat":52.5286403,"lng":13.425453500000003},{"name":"Anti-Quariat","address":"Oranienstr. 45, 10999 Berlin","info":"Kontktadresse für Demosanis sowie Stressfaktor (Papierausgabe)Mo-Fr 14:00-18:00\nSa 11:00-15:00","www":"http://www.anti-quariat.de/","email":"mailto:mail@anti-quariat.de","telephone":"       Tel.: 030-6157428   Fax: 030-61401927   ","lat":52.5016463,"lng":13.41828559999999},{"name":"Antifa Weißensee","address":"c/o Buchladen Schwarze Risse, Kastanienallee 85, 10435 Berlin","info":"","email":"mailto:weissensee.antifa@web.de","telephone":"    Tel.: 0174-5389226   ","lat":52.5375581,"lng":13.40887870000006},{"name":"apabiz","address":"Lausitzerstr. 10, 10999 Berlin","info":"Antifaschistisches Presse-Archiv und Bildungszentrum e.V.Do 15:00-19:00 und nach Absprache\n","www":"http://www.apabiz.de/","email":"mailto:mail@apabiz.de","telephone":"       Tel. + Fax: 030-6116249   ","lat":52.49741,"lng":13.428480000000036},{"name":"Aquarium (Köpi)","address":"Köpenicker Str. 137, 10179 Berlin","info":"Infopoint (Köpi: linker \nEingang 2. Stock) mit East European Anarchist Library, \nCounter-information & Contact-Bridge to \"Alternative Eastern Europe\"Di 15:00-19:00 Alternative Eastern Europe Café","telephone":" ","lat":52.5081893,"lng":13.42652709999993},{"name":"Arcanoa","address":"Am Tempelhofer Berg 8, 10965 Berlin","info":"Kunst-Bar\nSo-Do 19:00-03:00Fr+Sa 20:00-05:00Veranstaltungsbeginn ca. 21:30","www":"http://www.arcanoa.de/","email":"mailto:info@arcanoa.de","telephone":"       Tel.: 030-6912564   ","lat":52.4872679,"lng":13.387044999999944},{"name":"ARI (Antirassistische Initiative)","address":"Kottbusser Damm 25-26 , 10967 Berlin","info":"Sa 12:00-15:00 offene Bürozeiten (unregelmäßig, genaue Termine auf Webseite)","www":"http://www.ari-berlin.org/","email":"mailto:mail@ari-berlin.org","telephone":"       ","lat":52.48963999999999,"lng":13.423220000000015},{"name":"Ausland","address":"Lychener Str. 60, 10437 Berlin","info":"","www":"http://www.ausland-berlin.de/","telephone":"    ","lat":52.54487,"lng":13.419639999999958},{"name":"Autofocus","address":"Lausitzerstr. 10, 10999 Berlin","info":"Videoarchiv und -werkstattDi-Do 16:00-18:00","www":"http://www.videowerkstatt.de/","email":"mailto:autofocus@videowerkstatt.de","telephone":"       Tel.: 030-6188002   Fax: 030-6111583   ","lat":52.49741,"lng":13.428480000000036},{"name":"B-Lage","address":"Mareschstr. 1, 12055 Berlin","info":"Mo-So ab 19:00\nMi 20:00 VoKü\nFr + Sa 22:00 DJ*s\nSo 20:00 Tatort\nZwischendurch: Vorträge, Workshops, Soli-VAs","www":"http://www.b-lage.de/","email":"mailto:ed.egal-b@b-lage.de","telephone":"       ","lat":52.47375,"lng":13.451369999999997},{"name":"B5355","address":"Braunschweigerstr. 53/55, 12055 Berlin","info":"Selbstorganisierter Veranstaltungraum1.+3. Di 20:00 Hip Hop Bar + KüfA (Küche für Alle)\n2.+4. Di 20:00 Rodri's VoKü\n1.+3. Mi 20:00 Histo-Kino der FSI Geschichte (findet nicht statt in den Semsterferien)\n1. Do 20:00 SOL - Hausprojekt Solibar + Vokü\n2.+4. Do 20:00 Elotitos Solibar + Vokü\n2. Fr 18:00 Pizza Vokü + CryptoParty ab 20:00\n3. Fr 20:00 Initiative gegen Unerträglichkeiten – nouvelle dune Solibar + Vokü\n4. Fr 21:00 Tresen der Anarchistischen Gruppe Neukölln (AGN)\n1.+3. So 14:00 Vegan Anarchists Soli Pizza Brunch\n2. So 13:00 munch_mob Solibrunch\n3. So 19:00 Calais Migrant Solidarity Solibar + Vokü\n4. So 19:30 VoKüno Vokü und Film (Film fängt 20:30 an)","www":"http://b5355.noblogs.org/","email":"mailto:b5355@riseup.net","telephone":"       ","lat":52.47073,"lng":13.446469999999977},{"name":"Babylonia","address":"Cuvrystr. 20-23, 10999 Berlin","info":"Selbstverwaltetes Zentrum zum Sprachenlernen (10 verschiedene Sprachen)Büro: Mo-Do 15:00-17:00\nAnmeldung Deutschkurse: Di 12:00-15:00\nSozialberatung: Mo 13:30-17:00 (Englisch, Spanisch, Italienisch, Deutsch)","www":"http://www.babylonia.de/","email":"mailto:info@babylonia.de","telephone":"       Tel.: 030-611 60 89   ","lat":52.49766100000001,"lng":13.443581600000016},{"name":"Baiz","address":"Schönhauser Allee 26 A , 10435 Berlin","info":"Kultur- und SchankwirtschaftTäglich ab 16:00 bis Barmensch am Ende\nMi: Vorträge, Diskussionen und Filme mit eher politischer Ausrichtung, Kickerturniere\nDo: Kulturbühne mit Musik, Text, Theater u.a.\nFr: einmal monatlich Roter Freitag\nSa: Straße der Besten, Domino-, Poker- u.a. Turniere\nSo: Filmklub \"Lichtbildung\"","www":"http://www.baiz.info/","email":"mailto:mts@baiz.info","telephone":"       ","lat":52.5358887,"lng":13.412778000000003},{"name":"BamM! (Büro für antimilitaristische Massnahmen)","address":"Karl-Kunger-Str. 18, 12435 Berlin","info":"Tipps zu Totalverweigerung, Musterungsboykott, WehrpflichtvermeidungDi + Fr 13:00-18:00 meistens (aber vorher anrufen)","www":"http://www.bamm.de/","email":"mailto:info@bamm.de","telephone":"       Tel.: 030-61 07 44 01   Fax: 030-61 07 44 10   ","lat":52.490574,"lng":13.447979199999963},{"name":"Bandito Rosso","address":"Lottumstr. 10a, 10119 Berlin","info":"Mo 21:00 ça va péter!\nMi 21:00 Kinotag\n1. Do 21:00 Antifa-Cocktail-Solitresen (AAPB)\n2.+4. Do 21:00 Lucie Film\n3. Do 20:00 RASH-Crew\nFr 20:00 leckeres Drei-Gänge-Menü (vegan/manchmal auch vegetarisch)\nletzter Sa 21:00 Tresenguerrilla\nSo 19:30 Morgen ist Montag! Tatort-Café","www":"http://www.banditorosso.net/","telephone":"    ","lat":52.5308795,"lng":13.407271300000048},{"name":"Baobab","address":"Greifswalder Str. 4 , 10405 Berlin","info":"Infoladen Eine-Welt e.V.","www":"http://www.baobab-infoladen.de/","email":"mailto:info@baobab-infoladen.de","telephone":"       Tel.: 030-4426174   Fax: 030-44359066   ","lat":52.5286403,"lng":13.425453500000003},{"name":"Bauwagenplatz am Kinderbauernhof","address":"Adalbertstrasse, 10999 Berlin","info":"Im Sommer ist ein Kino geplantJeden Sonntag ab 14:00 Besichtigung der Komposttoilette","telephone":" ","lat":52.5012891,"lng":13.419275599999992},{"name":"Bibliothek der Freien","address":"Greifswalder Str. 4, 2. Hof, Raum 1102, 10405 Berlin","info":"Anarchistische Bücherei im Haus der Demokratie.Information und Ausleihe:\nFr 18:00-20:00 und nach Vereinbarung\nMo Veranstaltungen","www":"http://www.bibliothekderfreien.de/","telephone":"    ","lat":52.53419359999999,"lng":13.423006499999929},{"name":"Buchladen zur schwankenden Weltkugel","address":"Kastanienallee 85, 10435 Berlin","info":"Mo-Fr 11.00-19.00 Uhr\nSa 11.30-18.00 Uhr","www":"http://buchladen-weltkugel.de/","email":"mailto:info[at]buchladen-weltkugel.de","telephone":"       Tel.: 030-4409158   ","lat":52.5375581,"lng":13.40887870000006},{"name":"Bunte Kuh","address":"Bernkastelerstr. 78 , 13088 Berlin","info":"Mi 19:00 Punkrock-Solitresen\nDo 19:00 Café\njeden 1. Do 19:30 Antifa-Infocafé\njeden 1.+3. Do 20:00 offene Jam-Session\nDo Fahrrad- und Motorradwerkstatt (vorher anmelden)","www":"http://www.buntekuhverein.de/","email":"mailto:buntekuh@t-online.de","telephone":"       ","lat":52.55705880000001,"lng":13.4700603},{"name":"Bödiker 9","address":"Bödikerstr. 9 , 10245 Berlin","info":"Mo 20:00 Küfa\nFr 16:00 Hackers Lounge (Selbsthilfe und Nerdtreff, offen für alle Marken)\nFr 19:00 Küfa\nFr 20:00 Film","www":"http://www.bodi9.org/","telephone":"    ","lat":52.4999334,"lng":13.463956100000019},{"name":"B_books","address":"Lübbener Str. 14, 10997 Berlin","info":"Buchhandlung und VerlagMontags abends Veranstaltungen (\"Montagspraxis\")","www":"http://www.bbooksz.de/","email":"mailto:x@bbooksz.de","telephone":"       Tel.: 030-6117844   Fax: 030-6185810   ","lat":52.49969,"lng":13.43804},{"name":"Café Cralle","address":"Hochstädterstr. 10a, 13347 Berlin","info":"Bar und Wohnzimmer in kollektiver Selbstverwaltung. Ausstellungen, Lesebühne, Filme, Veranstaltungen, Münztelefon und Pampe.Jeden Montag: Lesetresen mit Janoph und Hinark\nJeden Dienstag: Gebärdensprachkurs von 19:00 bis 21:00 mit Rita.\nJeden Mittwoch: \"Seht oder geht\". Ab 21:00 mit Popcorn, Leinwand, Sofa.\nJeden 1. Mittwoch alle 3 Monate: Twillight Zone ab 21:00.\nJeden Freitag: Cocktails two for one.\nJeden Sonntag: ab 19:00 bis um 24:00 Uhr Schaut \"Tatort\" und genießt eine leckere Suppe dabei.\nMontag bis Freitag: Feierabendbier... von 19:00 bis 20:00, jedes Bier zum halben Preis.","www":"http://www.cafe-cralle.net/","email":"mailto:cafecralle@riseup.net","telephone":"       Tel.: 030-455 30 01   ","lat":52.55066,"lng":13.36322999999993},{"name":"Café Köpenick","address":"Seelenbinderstr. 54, 12555 Berlin","info":"Kneipe, Konzerte, Küfa und Zivildienstberatung","www":"http://www.hdjk.de/","telephone":"    Tel.: 030-6520438   ","lat":52.45522,"lng":13.582789999999932},{"name":"Café Morgenrot","address":"Kastanienallee 85, 10435 Berlin","info":"Betrieb in kollektiver SelbstverwaltungMo geschlossen (weil Plenum)\nDi-Do 12:00-01:00\nFr+Sa 11:00-03:00\nSo 11:00-01:00\nFr-So 11:00-15:00 vegan-vegetarisches Frühstücksbuffet\n","www":"http://www.cafe-morgenrot.de/","email":"mailto:info@cafe-morgenrot.de","telephone":"       Tel.: 030-44317844   ","lat":52.5375581,"lng":13.40887870000006},{"name":"Clash","address":"Gneisenaustr. 2a, 10961 Berlin","info":"Konzerte, Parties, Veranstaltungen, KneipeMo-Fr 12:00 bis nachts (ab 12:00 Mittagstisch, veg. + Fleisch)\nSa+So 17:00 bis nachts (bei Veranstaltungen ändert sich das manchmal)\nSo 20:00 \"Futtern wie bei Muttern\" mit Funky Music","www":"http://www.clash-berlin.de/","email":"mailto:info@clash-berlin.de","telephone":"       Tel.: 030-32526387   Fax: 030-32526388   ","lat":52.49191,"lng":13.388169999999946},{"name":"Club U5 (Hellersdorf)","address":"Auerberger Ring 25, 12619 Berlin","info":"Mi 17:00 Punktresen (Punk aus der Dose, Kickern und Billard)","telephone":" Tel.: 030-92212361   ","lat":52.53325,"lng":13.599159999999983},{"name":"ComicBibliothek 'Bei Renate'","address":"Tucholskystr. 32, 10117 Berlin","info":"Lesen, Leihen, Selbermachen. A wie Ausstellungen, B wie Beratung, C wie Comic-Kurse... V wie Vendetta.Mo-Do\n 14:00-20:00; Fr. 14:00-19:00; jeden ersten Mo im Monat ab 20:00 \nStammtisch; jeden letzten Fr im Monat ab 21:00 \"Mono Brutal\"","www":"http://www.renatecomics.de/","email":"mailto:auge@renatecomics.de","telephone":"       Tel.: 030-97005815   ","lat":52.52621200000001,"lng":13.393735200000037},{"name":"Convoi (Wagenburg)","address":"Rigaerstr. 6/7, 10247 Berlin","info":"","telephone":" ","lat":52.51785,"lng":13.455190000000016},{"name":"Dr. Zineatron","address":"Scharnweberstr. 38, 10247 Berlin","info":"Anarchist infoladen, zine library/distro and workshop and arts spaceTues 19:00-21:00","www":"http://doctorzineatron.wordpress.com/","email":"mailto:dr.zineatron@riseup.net","telephone":"       ","lat":52.51289999999999,"lng":13.46411999999998},{"name":"Drugstore","address":"Potsdamer Strasse 180, 10783 Berlin","info":"Di 18:00 Offenes Plenum\nJeden 1. Sa im Monat 22:00 Nox Arcana\nSo Popcornkino (18:00 oder 20:00, je nach Anzahl der Filme)\nDer Eintritt ist immer frei!","www":"http://www.drugstore-berlin.de/","email":"mailto:kontakt@drugstore-berlin.de","telephone":"       Tel.: 030-902776169   ","lat":52.49386,"lng":13.360599999999977},{"name":"DruzBar","address":"New Yorck im Bethanien, 10997 Berlin","info":"1.+3.+5. Mo im Monat 20:00 VoKü, Soli-Cocktailbar zugunsten politischer Projekte","telephone":" ","lat":52.5004054,"lng":13.43340169999999},{"name":"EA (Ermittlungsausschuss)","address":"Gneisenaustr. 2a, 10961 Berlin","info":"Hilfe und Beratung bei Festnahmen und Prozessen, Vermittlung von RechtsanwältInnen. Während und nach Demos in der Regel besetzt.Di 20:00-22:00","www":"http://www.mehringhof.de/projekte/ea.htm","telephone":"    Tel.: 030-6922222   ","lat":52.49191,"lng":13.388169999999946},{"name":"Eiszeit-Kino","address":"Zeughofstr. 20, 10997 Berlin","info":"KinoKinotag: Di (5 Euro)","www":"http://www.eiszeit-kino.de/","email":"mailto:SuzanBeermann@gmx.net","telephone":"       Tel.: 030-6116016   ","lat":52.50022999999999,"lng":13.433279999999968},{"name":"Erreichbar","address":"Reichenberger Str. 63a HH, 10999 Berlin","info":"Sa 16:00 Go- und Schach-Treff\nSo 12:00 veganer AntiRa-Soli-Brunch","www":"http://reiche63a.blogsport.de/","email":"mailto:erreichbar@riseup.net","telephone":"       ","lat":52.49525,"lng":13.430560000000014},{"name":"f.a.q.","address":"Jonasstr. 40, 12053 Berlin","info":"Antisexistischer Infoladen","www":"http://www.as-laden.info/","telephone":"    ","lat":52.47075,"lng":13.431050000000027},{"name":"FAU-Lokal","address":"Lottumstr. 11, 10119 Berlin","info":"Anarchosyndikalistisches Gewerkschaftslokal der Freien ArbeiterInnen Union (FAU-IAA)Fr 17:00-20:00 offenes Büro\nFr 17:00-18:00 Sozial- und Arbeitsrechtsberatung der FAU Berlin. In Kooperation mit einem Rechtsanwalt\nSyndikatstreffen:\nAllgemeines Syndikat: 2. Mi im Monat 19:00 Vollversammlung\nGewerkschaftliche Beratung: 2. und 4. Fr im Monat 17:00-18:00 (am Besten meldet ihr euch per E-Mail an: faub-kontakt@fau.org)\nBildungssyndikat: 1., 3. u. ggf. 5. Mi 20:00\nKultur- u. Mediensyndikat: 1. und 3. Do 20:00\nGNNL: letzter Do im Monat 20:00","www":"http://www.berlin.fau.org/","email":"mailto:faub-kontakt@fau.org","telephone":"       Tel.: 030-28700804   Fax: 030-28700813   ","lat":52.5309748,"lng":13.406935100000055},{"name":"FDCL","address":"Gneisenaustr. 2a, 10961 Berlin","info":"Forschungs- und Dokumentationszentrum Chile-Lateinamerika e.V. Grosses Archiv.","www":"http://www.fdcl.org/","email":"mailto:fdcl-berlin@t-online.de","telephone":"       Tel.: 030-693 40 29   Fax: 030-6926590   ","lat":52.49191,"lng":13.388169999999946},{"name":"Fehre 6","address":"Fehrbellinerstr. 6, 10119 Berlin","info":"Mo 21:00 Montagsbar\nDo 21:00 Café Trockenfisch\nSo 20:00 \"lauter niemand\" - Literaturlabor\nimmer mal wieder: Filmabend, Karaokeabend, Vorstellungen des Transit-Theater-Berlin\nKicker frei","telephone":" ","lat":52.53119,"lng":13.40994999999998},{"name":"FFM","address":" Gneisenaustr. 2a,  10961 Berlin","info":"Forschungsgesellschaft Flucht und Migration\n","www":"http://www.ffm-berlin.de/","email":"mailto:ffm@ipn.de","telephone":"       Tel.: 030-6935670   Fax: 030-69508642/43   ","lat":52.49191,"lng":13.388169999999946},{"name":"Fischladen","address":"Rigaerstr. 83, 10247 Berlin","info":"Vereinsräume des Fischbrötchen e.V.Billard for free","email":"mailto:fischladen@Safe-mail.net","telephone":"    Tel.: 030-4280 9944   ","lat":52.51717,"lng":13.461919999999964},{"name":"Florida Wedding","address":"Lüderitzstr. 13,  Berlin","info":"So 20:00 Bar, 21:00 Kino umsonst und drinnen","telephone":" ","lat":52.5504,"lng":13.348009999999931},{"name":"Food For Action","address":",  Berlin","info":"\"Food For Action\" kocht \nauf politischen Aktionen und Veranstaltungen, um den Widerstand zu \nstärken (\"Ohne Mampf kein Kampf!\") und um politisch und ökologisch \nsinnvolle Alternativen in die politische Praxis zu integrieren.Plenums-Termin und Kontakt über Email-Adresse!","www":"http://food4action.blogsport.de/","email":"mailto:kochen@food4action.de","telephone":"       ","lat":52.52000659999999,"lng":13.404953999999975},{"name":"Food Not Bombs c/o M 99","address":"Manteuffelstr. 99, 10997 Berlin","info":"Kontaktadresse","telephone":" ","lat":52.5009343,"lng":13.428149800000028},{"name":"FREE e.V.","address":"Gitschiner Str. 92, 10969 Berlin","info":"Workshops im MusikbereichJede Woche jeweils am:\nDi: DJ-Workshop\nMi: Beschallungs-Technik\nDo: Computer als Musik-Instrument\nAlle Workshops sind kostenlos.\nAnmeldung unter Tel. 0176-22515093","email":"mailto:contact@xfreex.net","telephone":"    ","lat":52.49867,"lng":13.401160000000004},{"name":"Freudenhaus","address":"Lottumstr. 9 VH, 10119 Berlin","info":"Do, Fr, Sa 21:00-04:00\nDo Vokü ab 21:00","telephone":" ","lat":52.5309,"lng":13.40736000000004},{"name":"Friedel 54","address":"Friedelstr. 54, 12047 Berlin","info":"","www":"http://friedel54.noblogs.org/","telephone":"    ","lat":52.48869999999999,"lng":13.427320000000009},{"name":"Galerie Olga Benario","address":"Richardstr. 104, 12043 Berlin","info":"Ausstellungen und VeranstaltungenSo-Fr 18:00-24:00","www":"http://www.galerie-olga-benario.de/","email":"mailto:gob@antifa-net.de","telephone":"       Tel.: 030-32702289 od. 030-6241767   ","lat":52.47769,"lng":13.440339999999992},{"name":"Gegeninformations-Büro","address":"Kohlfurterstr. 40, 10999 Berlin","info":"Ein Zusammenschluß \nparteipolitisch unabhängiger Menschen mit dem Ziel, der \n(ver-)öffentlich(t)en Kriegspropaganda mit Aufklärung in Wort und \nöffentlicher Aktion in der Tat etwas entgegenzusetzen.Bürozeiten: Di 20:00-22:00; offenes Plenum: Mi 20:00","www":"http://www.gegeninformationsbuero.de/","email":"mailto:mail@gegeninformationsbuero.de","telephone":"       ","lat":52.4965,"lng":13.417670000000044},{"name":"Groni50 (Wedding)","address":"Groninger Str. 50, 13347 Berlin","info":"jeden 1. + 3. Di im Monat 20:00 vegan/veg. Vokü + Film/Lesung","www":"http://groni50.org/","telephone":"    ","lat":52.55494,"lng":13.362039999999979},{"name":"Hanfmuseum","address":"Mühlendamm 5a, 10178 Berlin","info":"Di-Fr 10:00-20:00 bei Anmeldung sind Führungen und Film möglich\nDi 19:00 Hanfparade Organisationstreffen\nSa-So 12:00-20:00\nDo 18:00-19:00 Rechtsberatung\nweitere Initiativen im Haus sind Hanfparade e.V., Hanf e.V.,Grüne-Hilfe... Für Marihuana-Verfolgte haben wir nützliche Tipps.","www":"http://www.hanfmuseum.de/","email":"mailto:info@hanfmuseum.de","telephone":"       Tel.: 030-2424827   Fax: 030-40042751   ","lat":52.5166481,"lng":13.408314399999995},{"name":"Haus der Demokratie","address":"Greifswalder Str. 4, 10405 Berlin","info":"","www":"http://www.hausderdemokratie.de/","email":"mailto:kontakt@hausderdemokratie.de","telephone":"       Tel.: 030-2043506   Fax: 030-20165522   ","lat":52.5286403,"lng":13.425453500000003},{"name":"Heilehaus","address":"Waldemarstr. 36, 10999 Berlin","info":"Duschen und Wäsche waschen täglich 11:00 bis 19:00 \nSa, So, Mi: Männer + Frauen\nMo+Fr: Männer\nDi+Do: Frauen","telephone":" ","lat":52.5035531,"lng":13.419113299999935},{"name":"Infoladen Daneben","address":"Liebigstr. 34, 10247 Berlin","info":"Infoladen (Free-Internet, Archiv, aktuelle Zeitschriften, Revolutionsbedarf)Mo-Fr 18:00-20:00\nPlenum: jeweils 1. Montag im Monat 20:00","www":"http://www.daneben.info/","email":"mailto:daneben@nadir.org","telephone":"       ","lat":52.51813,"lng":13.456940000000031},{"name":"Initiative gegen das Chipkartensystem","address":"Greifswalder Str. 4 , 10405 Berlin","info":"c/o Berliner Büro für Gleiche Rechte","www":"http://www.chipkartenini.squat.net/","email":"mailto:konsumfuerfreiesfluten@yahoo.com","telephone":"       Tel.: 0160-3410547   ","lat":52.5286403,"lng":13.425453500000003},{"name":"Intercambio","address":"Kreutziger Str. 18, 10247 Berlin","info":"Infoladen","email":"mailto:intercambio-infoladen@gmx.net","telephone":"    ","lat":52.5130646,"lng":13.46011599999997},{"name":"Irving-Zola-Haus","address":"Ohlauerstr. 12, 10999 Berlin","info":"Nach der erfolgreichen \nDoppelbesetzung auf dem Gelände der ehemaligen Gerhart-Hauptmann-Schule \nin Kreuzberg am 8. Dezember 2012 entstand dort das Refugee-Strike-House \nund das Irving-Zola-Haus.jeden Tag von 16:00-20:00 offen\nMi 19:00 Solivokü","www":"http://irvingzolahaus.blogsport.de/","email":"mailto:irvingzolahaus@riseup.net","telephone":"       ","lat":52.4964944,"lng":13.43122470000003},{"name":"JUP","address":"Florastr. 84, 13187 Berlin","info":"Unabhängiges Jugendzentrum PankowDi, Do, So 20:00 Tresen im Café und Umsonst Boutique\njeden 1. Mo 19:00 Filmabend\njeden 4. Mo 19:00 Antifa Tresen\njeden Di: 20:00 Uhr KüFa (vegan/vegetarisch) ","www":"http://www.jup-ev.org/","email":"mailto:info@jup-ev.org","telephone":"       Tel.: 030-48638200   Fax: 030-48638202   ","lat":52.5659162,"lng":13.400196499999993},{"name":"K19 Café","address":"Kreutzigerstr. 19, 10247 Berlin","info":"Mo 20:00 SONED-Abend, Weltküche\nMi 20:00 Kiezsuppe (leckeres Essen mit Technobeatz)\nDo 20:00 Kneipe und Vokü","telephone":" ","lat":52.5132186,"lng":13.460173899999972},{"name":"K9","address":"Kinzigstr. 9, 10245 Berlin","info":"Grössenwahn & Leichtsinn (Veranstaltungsetage und Partykeller)\nAnfragen für Veranstaltungen groessenwahn@kinzig9.de","www":"http://www.kinzig9.de/","telephone":"    ","lat":52.5136887,"lng":13.466101699999967},{"name":"Kadterschmiede","address":"Rigaer Str. 94, 10245 Berlin","info":"Mi 20:00 Vokü","telephone":" ","lat":52.51804,"lng":13.458139999999958},{"name":"Kampagne gegen Wehrpflicht, Zwangsdienste und Militär","address":"Kopenhagener Str. 71, 10437 Berlin","info":"Bürozeiten: montags bis freitags von 10:00 bis 18:00","www":"http://www.kampagne.de/","email":"mailto:info@kampagne.de","telephone":"       Tel.: 030-440 130-0   Fax: 030-440 130-29   ","lat":52.54855999999999,"lng":13.410560000000032},{"name":"kanalB","address":"Reichenberger Str.121, 10999 Berlin","info":"Trash Video Magazin, Internetsender ","www":"http://www.kanalb.de/","email":"mailto:wir@kanalb.de","telephone":"       Tel.: 030-61626999   ","lat":52.49534,"lng":13.43211999999994},{"name":"Kanzleramt Kulturbanausen e.V.","address":"Lohmühlenstrasse, 12435 Berlin","info":"Café jeden So 14:00 bis open end;\nKino mittwochs um 21:00 (Einlass um 20:00)","telephone":" ","lat":52.4930107,"lng":13.444485600000007},{"name":"Kastanienkeller","address":"Kastanienallee 85 HH, 10435 Berlin","info":"Mehrzweck-Vereinsraum  der BesetzerInnen im Prenzlauer Berg (BIP e.V.) - Eingang durchs Café Morgenrot.Di: vegane Volxküche\nDo: Videokino\nFr/Sa: Konzerte, Partys u.v.m.","www":"http://www.k85.squat.net/","email":"mailto:kastanie85@gmx.net","telephone":"       ","lat":52.5375581,"lng":13.40887870000006},{"name":"KTS13","address":"Karpfenteichstr. 13, 12435 Berlin","info":"Projekt- und Wagenplatz, Linienhof im Exil, Betonsalon, Proberaum, (Antirassistisches) Gartenprojektjeden letzten Samstag im Monat Kaffee und Kuchen ab 15:00","www":"http://kts13.blogsport.de/","email":"mailto:visionen@riseup.net","telephone":"       ","lat":52.48255,"lng":13.466080000000034},{"name":"KuBiZ","address":"Bernkasteler Str. 78, 13088 Berlin","info":"Kultur- und Bildungszentrum Raoul WallenbergInfostunde: Mi 16:00\nDi 15:00 Umsonstladen-Treffen\nWeitere Termine auf der Internetseite","www":"http://www.kubiz-wallenberg.de/","email":"mailto:kontakt@kubiz-wallenberg.de","telephone":"       Tel.: 030-96201345   ","lat":52.55705880000001,"lng":13.4700603},{"name":"Kurt-Lade-Klub","address":"Grabbeallee 33, 13156 Berlin","info":"Di-Do Café von 16:00-22:00 und So 15:00-21:00\nFr+Sa Abendveranstaltungen ab 21:00","www":"http://kurtladeklub.jimdo.com/","email":"mailto:info@kurtladeklub.de","telephone":"       Tel.: 030-4857227   ","lat":52.57481,"lng":13.398680000000013},{"name":"KvU (Kirche von Unten)","address":"Storkower Str. 119 , 10407 Berlin","info":"Di 19:00 Vollversammlung\nMi 20:00 Punkrocktresen\nDo 20:00 Volxküche\nSo 13:00 Katerfrühstück, 17:00 Film","www":"http://www.kvu-berlin.de/","email":"mailto:info@kvu-berlin.de","telephone":"       Tel.: 030-4491172   Fax: 030-47374130   ","lat":52.5356075,"lng":13.451980999999932},{"name":"Køpi","address":"Köpenicker Str. 137, 10179 Berlin","info":"Autonomes Kulturzentrum: Konzerte, Kneipe, Kino, Siebdruck, Sport und FutterKØPI-Fightclub, Klettergruppe, Siebdruckwerkstatt Kommandantur -> Website\nMo 21:00 Videokino Peliculoso: Aktuelle Filmreihe\nDi 15:00 - 19:00 Alternative Eastern Europe Café im Aquarium (Eingang links 2. Stock) mit Bibliothek\nDi 17:00 Hardrockcafé und später Punkrockkneipe, ab 20:00 Vokü (vegan)\nMi 18:00 Plenum, anschliessend Punkrockbar mit Vokü (vegan) ab ca. 20:30\nDo 21:00 Videokino Peliculoso\nAn Veranstaltungsfreien Freitagen und Samstagen ab 22:00 Kneipe\nInfoshop KØPI:\nMi 18:00-21:00 Uhr, öfter auch bei Partys & Konzerten 21:00-23:00","www":"http://koepi137.net/","email":"mailto:koepi137@koepi137.net","telephone":"       Tel.: 030-2795916   ","lat":52.5081893,"lng":13.42652709999993},{"name":"La Casa","address":"Wurzener Str. 6, 12627 Berlin","info":"Selbstverwaltetes Jugendzentrum\nMi 19:00 Kneipe, Billard und Kicker","www":"http://la-casa.so36.net/","email":"mailto:la-casa@so36.net","telephone":"       ","lat":52.54221,"lng":13.617309999999975},{"name":"Laster und Hänger","address":"Revaler- Ecke Modersohnstr., 10245 Berlin","info":"","telephone":" ","lat":52.5065685,"lng":13.458839799999964},{"name":"Lauschangriff","address":"Rigaer Str. 103, 10247 Berlin","info":"Mo: Bar, Raggaeparty\nDi: Rock'n'Roll-Bar\nMi: Livemusik\nDo: Dosenbier + Punk mit DJ Mogli\nFr: Party\nSa: Party","www":"http://www.lauschangriff-berlin.de/","telephone":"    Tel.: 030-42219626   Fax: 030-42219621   ","lat":52.51835999999999,"lng":13.455330000000004},{"name":"Liberación","address":"Kinzigstr. 9, 10247 Berlin","info":"Café und Kneipe in der K9Täglich ab 19:00, So ab 15:00\nGratiskicker, öfters DJ, Suppe für 2,22 Euro, Fassbier, Zugang und Hangoutarea bei K9-Parties\nDi \"Free pop collision\" mit DJ le Vince und jot oh\nSo 15:00 Kaffee und Kuchen, Kinderecke, Kinderpreise\nSo 20:00 öfters Kleinkunstbühne (Lesungen, Akkustik-Konzerte, etc.)","email":"mailto:liberacion@kinzig9.de","telephone":"    ","lat":52.5136887,"lng":13.466101699999967},{"name":"Lichtblick","address":"Kastanienallee 77, 10435 Berlin","info":"Kino","telephone":" ","lat":52.53637,"lng":13.408140000000003},{"name":"Linienhof","address":"Karpfenteichstr. 13, 12435 Berlin","info":"Werkstattprojekt","www":"http://linienhof.blogsport.de/","telephone":"    ","lat":52.48255,"lng":13.466080000000034},{"name":"Lunte","address":"Weisestr. 53, 12049 Berlin","info":"Stadtteil- und Infoladenjeden 2. und 4. Mo im Monat 20:00 Anarchosyndikalistischer Tresen\njeden 3. Mo 20:00 Trans-, Inter- & Friends-Tresen\nDi 20:30 Videokino\nMi 12:00-16:00 Offener Treff und Erwerbslosenfrühstück mit Infos zu Hartz IV; 19:30 Rote Hilfe Beratung\nDo 18:00-20:00 Sozialberatung für ALG II Empfänger\nDo 20:00 Volxküche (vegetarisch)\nFr 20:00 Volxküche (Fleisch und vegetarisch)\nSa 16:30 Internet-Café, inkl. Red-Zombies-Neukölln-Stammtisch. Mini-Vokü (ca. 15 Portionen)\njeden 1. und 3. So im Monat 19:30 ANNA-Solitresen","www":"http://www.dielunte.de/","email":"mailto:funke@dielunte.de","telephone":"       Tel. + Fax: 030-6223234   ","lat":52.47775430000001,"lng":13.424108299999943},{"name":"Lychi","address":"Lychenerstr. 60, 10437 Berlin","info":"jeden 1. Fr. des Monats ab 20:00 antirassistischer Abend mit Vokü","telephone":" ","lat":52.54487,"lng":13.419639999999958},{"name":"M 99","address":"Manteuffelstr. 99, 10997 Berlin","info":"Infoladen und revolutionärer SupermarktMo-Fr 10:00-19:00, Sa 14:00-19:00","telephone":" ","lat":52.5009343,"lng":13.428149800000028},{"name":"M29","address":"Malmöerstr. 29, 10439 Berlin","info":"Projektraum und Vereinskneipe im Hausprojekt M29 (Prenzlauer Berg)Di 20:00: Vosifa-Solitresen\njeden 1. Di im Monat 20:00 Vokü","www":"http://hausprojekt-m29.org/","email":"mailto:hausprojektberlin@googlemail.com","telephone":"       ","lat":52.549708,"lng":13.404281699999956},{"name":"Mehringhof","address":"Gneisenaustrasse 2a, 10961 Berlin","info":"VeranstaltungsräumeTelefon besetzt 10:00-15:00","www":"http://www.mehringhof.de/projekte/portier.htm","telephone":"    Tel.: 030-6918021   Fax: 030-69599697   ","lat":52.49191,"lng":13.388169999999946},{"name":"Mensch Meier","address":"Storkower Str. 121, 10407 Berlin","info":"","www":"http://menschmeier.berlin/","telephone":"    ","lat":52.5351623,"lng":13.45241550000003},{"name":"Meuterei","address":"Reichenberger Str. 58, 10999 Berlin","info":"Veranstaltungen, KneipeMo-Sa ab 19:00-???\nSo 19:00 bis 01:00\nKneipenplenum: 15:00 jeden 2. Mo","www":"http://www.meuterei.tk/","email":"mailto:meuterei@riseup.net","telephone":"       ","lat":52.49583,"lng":13.428620000000024},{"name":"Müßiggang","address":"Oranienstr. 14a , 10999 Berlin","info":"Second-Hand-BuchladenMo-Fr ca. 13:00-19:00","www":"http://www.muessiggang.net/","telephone":"    ","lat":52.50060620000001,"lng":13.423585900000035},{"name":"Netzwerk","address":"Gneisenaustrasse 2a, 10961 Berlin","info":"Förderkreis der politischen Selbsthilfe (finanzielle Unterstützung)Mo 13:00-18:00, Di-Do 12:00-15:00","www":"http://www.netzwerk-selbsthilfe.de/","telephone":"    Tel.: 030-6913072   Fax: 030-6913005   ","lat":52.49191,"lng":13.388169999999946},{"name":"New Yorck im Bethanien","address":"Mariannenplatz 2A, 10997 Berlin","info":"Bethanien-Südflügel, Eingang rechts","www":"http://www.newyorck.net/","email":"mailto:newyorck@so36.net","telephone":"       ","lat":52.50384099999999,"lng":13.424439600000028},{"name":"NFJ Laden","address":"Gryphiusstraße 23, 10245 Berlin","info":"","email":"mailto:info@naturfreundejugend-berlin.de","telephone":"    ","lat":52.5091654,"lng":13.463646299999937},{"name":"NGBK","address":"Oranienstrasse 25, 10999 Berlin","info":"Neue Gesellschaft für Bildende Kunst","www":"http://www.ngbk.de/","telephone":"    Tel.: 030-6153031   Fax: 6152290   ","lat":52.5010652,"lng":13.420656300000019},{"name":"Offene Werkstatt","address":"Liebigstr. 34 , 10247 Berlin","info":"Holz, Metall, Fahrräderjeweils 18:00-20:00\nMi: Holz- und Schweissarbeiten\nDo: Holz-, Schweiss- und Fahrradwerkeln","email":"mailto:waergstatt@gmx.de","telephone":"    ","lat":52.51813,"lng":13.456940000000031},{"name":"oh 21","address":"Oranienstr.21, 10999 Berlin","info":"linker Buchladen","www":"http://www.oh21.de/","telephone":"    Tel.: 030-6152226   ","lat":52.5007792,"lng":13.421703500000035},{"name":"Omayra","address":"Engeldamm 68, 10179 Berlin","info":"internat. Jugend-/Kultur- und BildungszentrumDi 19:30 Politfilme, ab und zu Veranstaltungen, Kicker","telephone":" ","lat":52.5059917,"lng":13.420795699999985},{"name":"Open Space","address":"Adalbertstr. 32, 10179 Berlin","info":"Do 20:00 Vokü mit Überraschung\nFr 20:00 Life-Kunst und Bar (Beginn 21:00 Uhr)\nJeden 1. Mittwoch im Monat: Parteiküche der KPD/RZ","www":"http://www.openspace32.de/","email":"mailto:info@openspace32.de","telephone":"       Tel.: 030-23459820   ","lat":52.5065508,"lng":13.423258600000054},{"name":"Papiertiger","address":"Cuvrystr. 25, 10997 Berlin","info":"Archiv und Bibliothek\nMo und Do 14:30-18:00\njeden letzten Fr im Monat 14:30-18:00 Frauentag (Mailkontakt zum Frauenarchiv)\nZusätzliche Termine nach Vereinbarung möglich.","www":"http://www.archiv-papiertiger.de/","email":"mailto:papier.tiger@web.de","telephone":"       Tel.: 030-6183051   ","lat":52.49683,"lng":13.442569999999932},{"name":"PiratInnen Radio Berlin UKW 95.2","address":"in Berlin UKW 95.2, mono, 1000 Berlin","info":"Piratinnen Radio Berlin UKW 95,4 jeden Freitag von 18h bis 20h. Manchmal laenger ...","telephone":" ","lat":52.52000659999999,"lng":13.404953999999975},{"name":"Platz-Bar","address":"Köpenicker Strasse 137, 10179 Berlin","info":"Wagenburg neben der KöpiKneipe jeden Mi + So ab 20:00","telephone":" ","lat":52.5081893,"lng":13.42652709999993},{"name":"Potse","address":"Potsdamer Str. 180, 10783 Berlin","info":"Di 19:00-20.00 offenes\n Plenum (während des Plenums: Fotolabor; ohne Anleitung im Moment. Leute\n die Lust und Ahnung haben einfach melden)\nDo 21:00 Punkrocktresen\nFr oder/und Sa Konzerte oder/und Partys\nDer Eintritt ist immer frei!","www":"http://www.potse-berlin.de/","email":"mailto:potse@web.de","telephone":"       Tel.: 030-78762693   ","lat":52.49386,"lng":13.360599999999977},{"name":"Projekt-Archiv","address":"Lychener Strasse 60, 10437 Berlin","info":"Archiv für linke Literatur, Zeitschriften und Bücher (auch zum leihen)Mi + Sa 16:00-18:00","telephone":" Tel.: 030-4477008   ","lat":52.54487,"lng":13.419639999999958},{"name":"Projektraum H48 (Neukölln)","address":"Hermannstr. 48, 12049 Berlin","info":"2. Hinterhof, 1. Etage (bei \"Projektraum\" klingeln)jeden Donnerstag ab ca. 20:00 Soli-Cocktailtresen\n1. Do im Monat: Damenbar_t - FrauenLesbenTrans-Abend\n2. Do im Monat: Antifaschistisches Bündnis Süd-Ost (ABSO), Autonome Neuköllner Antifa (ANA)\n3. Do im Monat: Tresen ohne Name\n4. Do im Monat: Undefinierbar\njeden 3. Sonntag im Monat um 14:00 Fika - veganer Kuchen- und Tortenbrunch\nInfos zur Raumnutzung und aktuelles: projektraum.h48.de","www":"http://www.h48.de/","telephone":"    ","lat":52.47841,"lng":13.425250000000005},{"name":"Projektwerkstatt W.u.T.","address":"Wurzener Str. 6, 12627 Berlin","info":"Archiv, Bibliothek, Rechner-Pool, Veranstaltungs- und Seminarraum und Café, fast immer VoküMi 17:00-22.00","www":"https://suburbanhell.org/wut","email":"mailto:wut@suburbanhell.org","telephone":"       ","lat":52.54221,"lng":13.617309999999975},{"name":"Rattenbar","address":"Findet mal hier mal dort statt...,  Berlin","info":"Für Homoratten und deren Freundinnen gibt es schlimme Punk-Transen-Shows und danach tanzbare Musik.","www":"http://www.rattenbar.com/","telephone":"    ","lat":52.52000659999999,"lng":13.404953999999975},{"name":"Rauchhaus","address":"Mariannenplatz 1A, 10997 Berlin","info":"benannt nach Georg von RauchDo 19:30 Plenum (auch Raumanfragen)\nMi 19:05 Vokü + Tresen im Rauchhauskeller (Eingang Bethaniendamm)","www":"http://www.rauchhaus1971.de/","email":"mailto:contact@rauchhaus1971.de","telephone":"       ","lat":52.50469,"lng":13.424300000000017},{"name":"RAW-Tempel","address":"Revaler Str. 99, 10245 Berlin","info":"Selbstverwaltetes Kultur- und SozialprojektMedirat (Beamtenwohnhaus): Naturheilkundliche Gesundheitsberatung gegen Spende, einfach vorbeikommen\nMo 12:00-14:00\nDi 11:00-13:00\nMi 15:00-17:00\nDo 13:00-15:00 nur für Frauenlesbentrans*\nFr nach Vereinbarung\nOder anrufen und was ausmachen: 53007653.","www":"http://www.raw-tempel.de/","email":"mailto:info@raw-tempel.de","telephone":"       Tel.: 030-2924695   Fax: 030-29774013   ","lat":52.50763269999999,"lng":13.454361199999994},{"name":"Real Deal Records","address":"Gneisenaustr. 60, 10961 Berlin","info":"Anarchistischer Platten- und InfoladenMo-Fr 14:00-20:00\nSa 13:00-17:00","www":"http://www.realdealpunk.de/","telephone":"    Tel.: 030-6944806   ","lat":52.4900338,"lng":13.403695800000037},{"name":"Regenbogenkino","address":"Lausitzer Str. 22, 10999 Berlin","info":"","telephone":" ","lat":52.49579,"lng":13.426789999999983},{"name":"Rosa Rose","address":"Garten-Eingang von der Jessnerstr. 3 oder 13, 10247 Berlin","info":"Gemeinschaftsgarten. Ein Garten von allen für alle! Der Garten ist öffentlich zugänglich.\nPostadresse: Rosa Rose, Kinzigstr. 9, 10247 Berlin","www":"http://www.rosarose-garten.net/","email":"mailto:rosarotrose@web.de","telephone":"       ","lat":52.5173449,"lng":13.463084900000013},{"name":"Rote Insel","address":"Mansteinstr. 10, 10783 Berlin","info":"Montag 19:00 Küfa (vegi und Fleisch)\nFreitag 21:00 Steinofenpizza","telephone":" ","lat":52.49153,"lng":13.366629999999986},{"name":"Rotes Café","address":"Harnackstraße 1a, 14195 Berlin","info":"Selbstorganisierter linker Freiraum und Info-Café an der FU.Mo-Fr meist 10:00-18:00\nMi ab 12:00 vegane Vokü","www":"http://rotescafe.blogsport.de/","email":"mailto:plenum[at]rotescafe.de","telephone":"       Tel.: 030-83856272   ","lat":52.44861,"lng":13.278130000000033},{"name":"Sama-Café","address":"Samariterstr. 32, 10247 Berlin","info":"Vereinscafé von Freundinnen und Freunden des Vereins Neues Leben und Gesünder Wohnen e.V.Mo 21:30 Filmclub\nDi 20:00 Hacker's Lounge\nMi 21:30 Filmclub\nDo 20:00 Schwarze Zone\nFr 20:00 im Wechsel: Killerhippies From Outta Space/Sama Alltime Favorites\nSa 20:00 Saturday Night Lounge, jeden 3. Samstag im Monat: Kickerturnier\nSo 19:00 Alle zwei Wochen Plenum (Gäste willkommen)","www":"http://www.sama32.squat.net/","email":"mailto:sama32@squat.net","telephone":"       Tel.: 0152-22437787   ","lat":52.51683,"lng":13.464979999999969},{"name":"SBZ Krähenfuß","address":"Dorotheenstr. 17, 10117 Berlin","info":"Selbstverwaltetes Café im Ostflügel des Hauptgebäudes der Humboldt-UniMo 18:00 Krähenfussplenum\nDi ab 16:00 LesBiSchwules Café\nMi ganztags HUmmel-Antifa\nDo tagsüber SaU (Seminar für angewandte Unsicherheit) und abends meist Veranstaltungen\nEintritt immer frei! (Während den Semesterferien ist das Krähenfuss geschlossen!)","email":"mailto:sbz-kraehenfuss@gmx.net","telephone":"    Tel.: 030-20932603   ","lat":52.5190479,"lng":13.393149999999991},{"name":"Scharni 38","address":"Scharnweber Str. 38,  Berlin","info":"","telephone":" ","lat":52.56619999999999,"lng":13.3202},{"name":"Scherer8","address":"Schererstr 8, 13347 Berlin, U Nauener Platz )","info":"HausprojektDi 14:00-17:00 BASTA! Erwerbsloseninitiative Berlin\nDi 19:00 Veranstaltungsplenum in der Kneipe Eingang Schererstr.\nDi 21:00 vegane Küfa und Kino\nMi 10:00-13:00 BASTA! Erwerbsloseninitiative Berlin\nDo 15:00-18:00 BASTA! Erwerbsloseninitiative Berlin\nDo 21:00 vegane Küfa und Tresen\nSo 16:00 Hausplenum in der ABB Eingang Adolfstr.\njeden 2.+4. So 13:00: Vegan-Brunch\njeden 1.+3. Di 19:00: Rote Hilfe","www":"http://scherer8.blogsport.de/","email":"mailto:vak@sch8.org","telephone":"       ","lat":52.54841,"lng":13.367380000000026},{"name":"Schlie 40","address":"Schliemannstr. 40 HH , 10437 Berlin","info":"Di Hell's KitchenDo 20:30 KinoFr 21:00 Bar mit Programm","www":"http://www.schlie40.net/","email":"mailto:schlie40@hotmail.com","telephone":"       ","lat":52.54228,"lng":13.41719999999998},{"name":"Schokoladen","address":"Ackerstr. 169/170, 10115 Berlin","info":"Mo-Sa 19:00-22:00 Konzerte + DJ-Party bis Open End (ausser Di)\nMo 22:00 Schokokuss - die queere Punk-Elektro-Nacht\nDi 20:30 LSD - Liebe Stadt Drogen (Lesebühne)\n1. So 20:30-03:00 Karaoke-Nacht mit KJ Der Käpt'n\n2. So 19:00 Open Stage - Play your Songs unplugged\n3. So 21:00 Cocktail Lounge (erlesen)\nletzter So 20:45 Dichter als Goethe - Thilo Bock mit Gast\n4. So 20:30 (unregelmässig) Schoki-Quiz","www":"http://www.schokoladen-mitte.de/","email":"mailto:info@schokoladen-mitte.de","telephone":"       Tel.: 030-2826527   ","lat":52.52974,"lng":13.39659000000006},{"name":"Schreina47","address":"Schreinerstr. 47, 10245 Berlin","info":"Projekträume mit free \nBillard und Kicker (auf Anfrage stehen die Projekträume für \nSoli-Veranstaltungen, Lesungen, Kultur usw. zur Verfügung)Mi+Do 20:00 Vokü und teilw. Veranstaltungen\nSa 20:00 Jugendantifaabend\nDi 20:00 Antifa-Soli-Abend\n1.+3. Di 20:00 Spieleabend und Vokü\n4. Di 20:00 KSAG Abend und Vokü\n1.+3. Do Guerrillera-Abend und Vokü\n2. Do Beathaus mit Vokü\njeden letzten Do Sweet Sensation (Ska/Rocksteady - Live-DJs, tanzen, Vokü)","email":"mailto:schreina47@web.de","telephone":"    ","lat":52.51732999999999,"lng":13.467430000000036},{"name":"Schwarze Risse (im Mehringhof)","address":"Gneisenaustr. 2a, 10961 Berlin","info":"BuchladenMo-Fr 10:00-18:30, Sa 11:00-14:00. Eine Aussenstelle des Buchladens gibt es in der Kastanienallee 85 (Prenzlauer Berg).","www":"http://www.schwarzerisse.de/","email":"mailto:schwarze_risse@t-online.de","telephone":"       Tel.: 030-6928779   ","lat":52.49191,"lng":13.388169999999946},{"name":"Schwarzer Kanal","address":"Kiefholzstr. 74, 12057 Berlin","info":"Queer-Wagenplatz (war früher am Spreeufer, musste aber dort aufgrund eines verdi-Neubaus weichen)","www":"http://www.schwarzerkanal.squat.net/","email":"mailto:schwarzer-kanal@web.de","telephone":"       ","lat":52.4820746,"lng":13.46239330000003},{"name":"SfE","address":"Mehringhof, Gneisenaustr. 2a, 10961 Berlin","info":"Selbstverwaltete Schule für ErwachsenenbildungBürozeiten Mo, Di und Do von 10:00 bis 13:00. \nIn den Ferien geschlossen.","www":"http://www.sfeberlin.de/","telephone":"    Tel.: 030-6937048   Fax: 030-6937049   ","lat":52.49191,"lng":13.388169999999946},{"name":"SO36","address":"Oranienstr. 190, 10999 Berlin","info":"","www":"http://www.so36.de/","email":"mailto:info@so36.de","telephone":"       Tel.: 030-61401306   Fax: 030-61609268   ","lat":52.50093409999999,"lng":13.421875799999953},{"name":"SOFA (Bethanien)","address":"Mariannenplatz 2, 10997 Berlin","info":"Selbstverwaltetes Offenes Forum der AnwohnerInnen im Bethanien (direkt am Bethanien-Haupteingang links)","www":"http://sofa-im-bethanien.blogspot.com/","email":"mailto:kfm@bethanien.info","telephone":"       ","lat":52.50384099999999,"lng":13.424439600000028},{"name":"Spinnboden","address":"Anklamer Str. 38, 10115 Berlin","info":"Lesbenarchiv e.V. und Bibliothek, sowie vielfältige Veranstaltungen und Gruppen. FrauenLesbenTrans-Raum.","www":"http://www.spinnboden.de/","email":"mailto:spinnboden@spinnboden.de","telephone":"       Tel.: 030-4485848   ","lat":52.535318,"lng":13.399280200000021},{"name":"SPK/PF(M)","address":"Postfach 620 668, 10796 Berlin","info":"Patientenfront/Sozialistisches\n Patientenkollektiv; Pathopraktik und ständige Arbeitskreise zum alle \nund alles umfassenden Thema Revolution kraft Krankheit.\n","www":"http://www.spkpfh.de/","telephone":"    ","lat":52.52000659999999,"lng":13.404953999999975},{"name":"Subversiv","address":"Brunnenstr. 7 HH, 10119 Berlin","info":"Mi 20:00 vegane Vokü mit Punktresen","telephone":" ","lat":52.5307682,"lng":13.400651700000026},{"name":"Supamolly","address":"Jessnerstr. 41, 10247 Berlin","info":"Kneipe und Konzerte, Café und KuchenDi-So ab 20:00 Kneipe\nSo ab 16:00 Kaffee und Kuchen\nDi Kino ab 21:00; dienstags auch Cocktailbar","www":"http://supamolli.de/molli.swf","email":"mailto:info@supamolly.de","telephone":"       Tel.: 030-29007294   ","lat":52.5107,"lng":13.471469999999954},{"name":"Syndikat","address":"Weisestr. 56, 12049 Berlin","info":"Kneipe täglich ab 20:00\nmonatlich Soliparty","www":"http://www.syndikat44.net/","telephone":"    Tel.: 030-6216774   ","lat":52.47823,"lng":13.424020000000041},{"name":"Systemfehler","address":"Jessnerstr. 41, 10247 Berlin","info":"Regelmäßiges: Schenkladen, Café Maschinen(t)raum, Meditationsabend, Zeichenkurs, öko-anarchistische Filmreihe.\nUnregelmäßiges: auch gerne, unser Blog ist aktuell.\nEintritt immer frei, alles auf Spendenbasis.Fr 15:00-18:00 veganes Schenkcafé","www":"http://www.systemfehler-berlin.de.vu/","email":"mailto:systemfehler-berlin%28at%29web.de","telephone":"       Tel.: 030-536 75 460   ","lat":52.5107,"lng":13.471469999999954},{"name":"Tante Horst","address":"Oranienstr. 45, 10969 Berlin","info":"LikörchenkollektivDi-Fr 12:30 bis open end\nSa+So 12:00 bis open end\nSo 12:00-16:00 vegan vegetarisches Frühstücksbuffet","www":"http://www.tantehorst.de/","email":"mailto:info@tantehorst.de","telephone":"       Tel.: 030-39509022   ","lat":52.5029438,"lng":13.41414229999998},{"name":"Tausendundeinbuch","address":"Gneisenaustr. 60, 10961 Berlin","info":"linker Buchladen","email":"mailto:tausendundeinbuch@yahoo.de","telephone":"    Tel.: 030-6914690   ","lat":52.4900338,"lng":13.403695800000037},{"name":"TEK","address":"Köpenicker Str. 189, 10997 Berlin","info":"Jugendladen","www":"http://www.tek36.de/","email":"mailto:tek-jugendladen@t-online.de","telephone":"       Tel.: 030-6149892   ","lat":52.501911,"lng":13.43989780000004},{"name":"Tempest Library","address":"Reichenberger Str. 63a, 10999 Berlin","info":"Multi-lingual anarchist infoshop and lending library.Di/Do 16:00-20:00\njeden 4. Di im Monat 16:00-20:00 Schreibwerkstatt (Gefangenen schreiben)\nSo 14:00-18:00","www":"http://tempestlibrary.com/","telephone":"    ","lat":52.49525,"lng":13.430560000000014},{"name":"Tommy-Weisbecker-Haus","address":"Wilhelmstr. 9, 10963 Berlin","info":"Schicksaal\nKonzerte ab 21:00 (Konzertkalender)\nDi 18:00 Kiez Cuisine Café\n\nLinie 1\nDi: Punrocktresen\njeden 1. Fr 21:00 Reggae X-Plosion (Ska-, Rock Steady-, Reggae Classics)\njeden letzten Fr 21:00 Surf & Roll (50's, 60's-Rockin' & Rollin'-Niter)\n\nÖffnungszeiten Café:\nMo-Do, So ab 18:00\nFr./Sa. ab 16:00","www":"http://tommyhaus.org/","email":"mailto:websista@tommyhaus.org","telephone":"       Tel. + Fax: 030-2512943   ","lat":52.5015,"lng":13.388879999999972},{"name":"Treffpunkt: Vor dem Haupteingang der Volksbühne","address":",  Berlin","info":"","telephone":" ","lat":52.52000659999999,"lng":13.404953999999975},{"name":"Tristeza","address":"Pannierstr. 5, 12047 Berlin","info":"KneipenkollektivAnfragen bzgl. politischer und kultureller Veranstaltungen, Ausstellungen oder Sonstigem sind willkommen an kultur@tristeza.org.\n\nÖffnungszeiten:\nMo-Fr ab 18:00\nSa/So ab 15:00\nDo 18:00: FLT-Kickern\nFr 19:00-20:00 Sprechstunde der Lautigruppe (Voranfragen und Kontakt unter lauti@squat.net)","www":"http://tristeza.org/","email":"mailto:info@tristeza.org","telephone":"       ","lat":52.48642,"lng":13.43119999999999},{"name":"Tuntenhaus","address":"Kastanienalle 86, 2. HH, 10435 Berlin","info":"","www":"http://tuntenhaus-berlin.de/","email":"mailto:tuntenhaus@gmx.net","telephone":"       ","lat":52.53758,"lng":13.40930000000003},{"name":"Turm (Neukölln)","address":"Werbellinstr. 50, 12053 Berlin","info":"","email":"mailto:turm.ev@googlemail.de","telephone":"    ","lat":52.4784211,"lng":13.429555899999968},{"name":"UBI KLiZ e.V. Mieterladen","address":"Kreutzigerstr. 23, 10247 Berlin","info":"Kommunikationstreff mit \nBeratungsangeboten und Veranstaltungen aller Art. Politik von unten ohne\n starre Öffnungszeiten (außer Mieter- und Sozialberatung).","www":"http://www.ubi-mieterladen.de/","email":"mailto:mieterladen@gmx.de","telephone":"       Tel.: 030-74078831 (auch Fax)   ","lat":52.51373520000001,"lng":13.460564400000067},{"name":"Umbruch","address":"Lausitzerstr. 10, 10999 Berlin","info":"Bildarchiv und LayoutgestaltungMo-Fr ab 11:00","www":"http://www.umbruch-bildarchiv.de/","email":"mailto:post@umbruch-bildarchiv.de","telephone":"       Tel.: 030-6123037   Fax: 030-6111583   ","lat":52.49741,"lng":13.428480000000036},{"name":"V36","address":"Voigstr. 36, 10247 Berlin","info":"Vereinsräume des V36 e.V.Mo 20:00 Montagsphobie (vegane Burgervokü und Bar)","telephone":" ","lat":52.51638000000001,"lng":13.467779999999948},{"name":"Vetomat","address":"Scharnweberstr. 35, 10247 Berlin","info":"Café und SiebdruckwerkstattMo 20:00 Kino\nMi 20:00 vegi/vegane Vokü\nDo 20:00 freies Kino und Vokü\njeden 3. Do im Monat 20:00 Antifa-Tresen\njeden 1.+3. Sa im Monat 12:00-16:00 vegi/veganer kalt/warmer Brunch\nSo 15:00 Siebdruckworkshop","www":"http://www.vetomat.net/","email":"mailto:info@vetomat.net","telephone":"       ","lat":52.51300999999999,"lng":13.463120000000004},{"name":"Villa Kuriosum","address":"Scheffelstr. 21, 10367 Berlin","info":"Selbstverwalter Raum für Kunst und Kulturjeden 2. Di im Monat: Scharni 29 Soli-Tresen mit Vokü\njeden Do 20:00 Minibar mit Vokü\njeden So 14:00-20:00 Kaffee und Kuchen im Garten","www":"http://villakuriosum.net/","email":"mailto:villakuriosum@googlemail.com","telephone":"       ","lat":52.52023,"lng":13.473230000000058},{"name":"Wagenburg Lohmühle","address":"Lohmühlenstr. 17, 12435 Berlin","info":"So ab 15:00 Uhr Café\nFr Open Air Kino","www":"http://www.lohmuehle-berlin.de/","telephone":"    ","lat":52.4927396,"lng":13.443421599999965},{"name":"Wagendorf Wuhlheide","address":"An der Wuhlheide 131b, 12459 Berlin","info":"Jeden Di ab 16:35 Punkrock-Tresen","www":"http://wagendorf-wuhlheide.blogspot.de/","telephone":"    ","lat":52.46544,"lng":13.536540000000059},{"name":"WB13","address":"Am Berl 13, 13051 Berlin","info":"jeden Mittwoch 21:00-24:00\njeden Sonntag 15:00-24:00\njeden Freitag 13:00-18:00 Lesecafé mit der Möglichkeit Bücher zu leihen","www":"http://www.wb13.org/","email":"mailto:info@wb13.org","telephone":"       Tel.: 030-9280815   Fax: 030-263917301086   ","lat":52.57418999999999,"lng":13.500390000000039},{"name":"X-B-Liebig","address":"Liebigstr. 34, 10247 Berlin","info":"Autonomes, feministisches Bar-Kollektiv im Hausprojekt Liebig34Mo 21:00 FrauenLesbenTrans*Bar\nDi 21:00 Delikatessen-KüfA (vegan)\nMi 21:00 Punk-Bar mit KüfA (vegan)","www":"http://www.xb.blogsport.de/","telephone":"    ","lat":52.51813,"lng":13.456940000000031},{"name":"ZGK","address":"Scharnweberstr. 38, 10247 Berlin","info":"","www":"http://zgk.blogsport.de/","telephone":"    ","lat":52.51289999999999,"lng":13.46411999999998},{"name":"Zielona Gora","address":"Grünbergerstr. 73, 10245 Berlin","info":"Montag: jeden 1. Mo 20:30 Internationalistischer Abend\nDienstag: jeden Di 16:30 Corax - Der offene Lernraum; 21:05 Filmstube\nMittwoch: 1. Mi 20:00 Roter Abend; 3. Mi 20:00 Migration State of Mind (Infoveranstaltung oder Kino, Küfa)\nDonnerstag: jeden Do 14:00 Literatur und Lesecafé; 18:00 politisches Café\njeden 1. Do 20:00 Samahuset im Exil-Tresen mit veganer Vokü; 3. Do 20:00\n NoBorders-Tresen + vegane Pizza; 4. Do 20:00 Metal-Tresen + vegane Vokü\nFreitag: jeden 1. Fr 21:47 Freitags Abend Solispieleabend; 3. Fr 20:00 Solitresen ABC Polen; 4. Fr 20:00 Internationalistischer Abend\nSamstag: jeden 2. Sa 12:15 Solibrunch (vegan/veget.); jeden 2. Sa\n 20:00 FAU Solitresen; jeden 3. Sa 15:00 Kinderkino; fast jeden 3. Sa \n22:00 Kiez-/Soliparty; jeden 4. Sa 19:00 Soligruppe Petrogo\nSonntag: jeden So 19:00 vegane Vokü; jeden 2. So 19:00 vegane Solivokü (für externe Gruppen)","telephone":" Tel.: 030-2922471   ","lat":52.51146,"lng":13.459608900000035},{"name":"Zwille","address":"Fasanenstr. 1, 10623 Berlin","info":"TU Berlin, Südcampus, Z-Gebäude, 3. OG\nFasanenstr. 1, Ecke Müller-Breslaustr. Offen für alle, die offen sind (Nachfolgeprojekt der VillaBEL-Besetzung)Initiativenbüro, autonome Seminare, emanzipative Veranstaltungen, selbstorganisierte Räume zum Lernen und Leben.","www":"http://www.zwille.org/","email":"mailto:dieueblichenverdaechtigen@gmx.de","telephone":"       ","lat":52.5111729,"lng":13.33019969999998}]
