[
  {
    "name": "A-Laden",
    "full_address": "Brunnenstr. 7 (neben Subversiv), 10119 Berlin(U-Bhf. Rosenthaler Platz)",
    "address": "Brunnenstr. 7 , 10119 Berlin",
    "info": "Anarchistischer Infoladen\n<br>Do 18:00-22:00 (nach Bedarf Open End) und auf Anfrage",
    "www": "http://www.a-laden.org",
    "email": "mailto:a-laden@free.de",
    "telephone": "       Tel. + Fax: 030-394 61 67   ",
    "coordinates": [
      13.4006517,
      52.5307682
    ]
  },
  {
    "name": "A17",
    "full_address": "Admiralstr. 17, 10999 Berlin(U-Bhf. Kottbusser Tor)",
    "address": "Admiralstr. 17, 10999 Berlin",
    "info": "Tagungs- und Erbauungszentrum der KPD/RZ, Fachbereich Abendbrot. PaKü, Flohmarkt, Sport, Veranstaltungen und Treffpunkt. Fremdnutzung auf\nAnfrage; kein Lärm!<br>",
    "email": "mailto:mehrzweckhalle@so36.net",
    "telephone": "    ",
    "coordinates": [
      13.41546,
      52.49642
    ]
  },
  {
    "name": "ABC Berlin",
    "full_address": "Wilhelmstr. 9 (c/o Tommy Weissbecker Haus), 10963 Berlin",
    "address": "Wilhelmstr. 9 , 10963 Berlin",
    "info": "Anarchist Black Cross<br>",
    "www": "http://www.abc.tommyhaus.org",
    "email": "mailto:abc-berlin@tommyhaus.org",
    "telephone": "       ",
    "coordinates": [
      13.38888,
      52.5015
    ]
  },
  {
    "name": "Abstand",
    "full_address": "Rigaerstr. 78, 10247 Berlin(U-Bhf. Samariterstrasse)",
    "address": "Rigaerstr. 78, 10247 Berlin",
    "info": "<br>Mo 22:00 Montagstresen (abwechselnd Peace Punk, Blues, Freakmucke) + vegane Burger<br>\nDi 21:00 Punk/Ska-Tresen, jd. 1. Di im Monat Spieleabend + vegan Thaifood<br>\nMi 21:00 Punkrock-Tresen + Burritos (vegan oder Fleisch)<br>\nDo 21:00 vegetarische Vokü + Kuchen<br>\nFr jd. 3. Fr im Monat Offbeat-Tresen",
    "telephone": " ",
    "coordinates": [
      13.46414,
      52.51681000000001
    ]
  },
  {
    "name": "Ackerkeller",
    "full_address": "Bergstr. 68, 10115 Berlin",
    "address": "Bergstr. 68, 10115 Berlin",
    "info": "<br>Di + Fr ab 22:00 LesBiSchwule Disse<br>\njeden 2. Sa im Monat Female Jungle (FrauenLesben-Party)<br>\njeden letzten Fr im Monat \"Homunculus\" (Gruftieparty)<br>\njeden 4. Fr im Monat 19:30 öffentliches Plenum<br>\neinmal monatlich gibt's Soliveranstaltungen",
    "www": "http://www.ackerkeller.de",
    "telephone": "    Tel.: 030-2807216   ",
    "coordinates": [
      13.3941167,
      52.5315905
    ]
  },
  {
    "name": "ALB (Antifaschistische Linke Berlin)",
    "full_address": "Postfach 580544, 10414 Berlin",
    "address": "Postfach 580544, 10414 Berlin",
    "info": "<br>",
    "www": "http://www.antifa.de",
    "email": "mailto:mail@antifa.de",
    "telephone": "       Tel.: 030-2756 0756   Fax: 030-2756 0755   ",
    "coordinates": [
      13.404954,
      52.52000659999999
    ]
  },
  {
    "name": "Ami* Curiae",
    "full_address": "Prinzenallee 58 C, 13359 Berlin",
    "address": "Prinzenallee 58 C, 13359 Berlin",
    "info": "<br>",
    "www": "http://amicuriae.blogsport.eu",
    "telephone": "    ",
    "coordinates": [
      13.3852065,
      52.5579723
    ]
  },
  {
    "name": "Anti-Atom-Plenum",
    "full_address": "Waldemarstr. 46, 10999 Berlin",
    "address": "Waldemarstr. 46, 10999 Berlin",
    "info": "Adresse ist nur Postadresse!<br>Di 20:00 Treffen Waldemarstr. 46",
    "www": "http://squat.net/aap-berlin/",
    "email": "mailto:aap-berlin@squat.net",
    "telephone": "       ",
    "coordinates": [
      13.4202824,
      52.5032337
    ]
  },
  {
    "name": "Anti-Diskriminierungsbüro (ADB) Berlin e.V.",
    "full_address": "Greifswalder Str. 4, 10405 Berlin(Tram 2, 3, 4 - Bus 100, 142, 257)",
    "address": "Greifswalder Str. 4, 10405 Berlin",
    "info": "Beratung und Hilfe für diskriminierte Menschen, vor allem Flüchtlinge und MigrantInnen.<br>Mo 10:00-13:00; Di und Do 17:00-19:00; Fr 18:00-20:00 (Jugend im ADB)\n",
    "www": "http://www.paritaet.org/via/member/adb-berlin.htm",
    "email": "mailto:RRassouli@diw.de",
    "telephone": "       Tel. + Fax: 030-2042511   ",
    "coordinates": [
      13.4254535,
      52.5286403
    ]
  },
  {
    "name": "Anti-Quariat",
    "full_address": "Oranienstr. 45, 10999 Berlin(U-Bhf. Moritzplatz)",
    "address": "Oranienstr. 45, 10999 Berlin",
    "info": "Kontktadresse für Demosanis sowie Stressfaktor (Papierausgabe)<br>Mo-Fr 14:00-18:00<br>\nSa 11:00-15:00",
    "www": "http://www.anti-quariat.de",
    "email": "mailto:mail@anti-quariat.de",
    "telephone": "       Tel.: 030-6157428   Fax: 030-61401927   ",
    "coordinates": [
      13.4182856,
      52.5016463
    ]
  },
  {
    "name": "Antifa Weißensee",
    "full_address": "c/o Buchladen Schwarze Risse, Kastanienallee 85, 10435 Berlin",
    "address": "c/o Buchladen Schwarze Risse, Kastanienallee 85, 10435 Berlin",
    "info": "<br>",
    "email": "mailto:weissensee.antifa@web.de",
    "telephone": "    Tel.: 0174-5389226   ",
    "coordinates": [
      13.4088787,
      52.5375581
    ]
  },
  {
    "name": "apabiz",
    "full_address": "Lausitzerstr. 10, 10999 Berlin",
    "address": "Lausitzerstr. 10, 10999 Berlin",
    "info": "Antifaschistisches Presse-Archiv und Bildungszentrum e.V.<br>Do 15:00-19:00 und nach Absprache\n",
    "www": "http://www.apabiz.de",
    "email": "mailto:mail@apabiz.de",
    "telephone": "       Tel. + Fax: 030-6116249   ",
    "coordinates": [
      13.42848,
      52.49741
    ]
  },
  {
    "name": "Aquarium (Köpi)",
    "full_address": "Köpenicker Str. 137, 10179 Berlin(Nähe Ostbahnhof)",
    "address": "Köpenicker Str. 137, 10179 Berlin",
    "info": "Infopoint (Köpi: linker Eingang 2. Stock) mit East European Anarchist Library, Counter-information &amp; Contact-Bridge to \"Alternative Eastern Europe\"<br>Di 15:00-19:00 Alternative Eastern Europe Café",
    "telephone": " ",
    "coordinates": [
      13.4265271,
      52.5081893
    ]
  },
  {
    "name": "Arcanoa",
    "full_address": "Am Tempelhofer Berg 8, 10965 Berlin(U-Bhf. Platz der Luftbrücke)",
    "address": "Am Tempelhofer Berg 8, 10965 Berlin",
    "info": "Kunst-Bar\n<br>So-Do 19:00-03:00<br>Fr+Sa 20:00-05:00<br>Veranstaltungsbeginn ca. 21:30",
    "www": "http://www.arcanoa.de",
    "email": "mailto:info@arcanoa.de",
    "telephone": "       Tel.: 030-6912564   ",
    "coordinates": [
      13.3870152,
      52.4876566
    ]
  },
  {
    "name": "ARI (Antirassistische Initiative)",
    "full_address": "Kottbusser Damm 25-26 (c/o Allmende), 10967 Berlin(U8 Hermannplatz/Schönleinstr.)",
    "address": "Kottbusser Damm 25-26 , 10967 Berlin",
    "info": "<br>Sa 12:00-15:00 offene Bürozeiten (unregelmäßig, genaue Termine auf Webseite)",
    "www": "http://www.ari-berlin.org",
    "email": "mailto:mail@ari-berlin.org",
    "telephone": "       ",
    "coordinates": [
      13.42322,
      52.48963999999999
    ]
  },
  {
    "name": "Ausland",
    "full_address": "Lychener Str. 60, 10437 Berlin",
    "address": "Lychener Str. 60, 10437 Berlin",
    "info": "<br>",
    "www": "http://www.ausland-berlin.de",
    "telephone": "    ",
    "coordinates": [
      13.41964,
      52.54487
    ]
  },
  {
    "name": "Autofocus",
    "full_address": "Lausitzerstr. 10, 10999 Berlin",
    "address": "Lausitzerstr. 10, 10999 Berlin",
    "info": "Videoarchiv und -werkstatt<br>Di-Do 16:00-18:00",
    "www": "http://www.videowerkstatt.de",
    "email": "mailto:autofocus@videowerkstatt.de",
    "telephone": "       Tel.: 030-6188002   Fax: 030-6111583   ",
    "coordinates": [
      13.42848,
      52.49741
    ]
  },
  {
    "name": "B-Lage",
    "full_address": "Mareschstr. 1, 12055 Berlin(S-Bhf Sonnenallee)",
    "address": "Mareschstr. 1, 12055 Berlin",
    "info": "<br>Mo-So ab 19:00<br>\nMi 20:00 VoKü<br>\nFr + Sa 22:00 DJ*s<br>\nSo 20:00 Tatort<br>\nZwischendurch: Vorträge, Workshops, Soli-VAs",
    "www": "http://www.b-lage.de",
    "email": "mailto:ed.egal-b@b-lage.de",
    "telephone": "       ",
    "coordinates": [
      13.45137,
      52.47375
    ]
  },
  {
    "name": "B5355",
    "full_address": "Braunschweigerstr. 53/55, 12055 Berlin(S/U-Bhf Neukölln)",
    "address": "Braunschweigerstr. 53/55, 12055 Berlin",
    "info": "Selbstorganisierter Veranstaltungraum<br>1.+3. <u>Di</u> 20:00 Hip Hop Bar + KüfA (Küche für Alle)<br>\n2.+4. <u>Di</u> 20:00 Rodri's VoKü<br>\n1.+3. <u>Mi</u> 20:00 Histo-Kino der FSI Geschichte (findet nicht statt in den Semsterferien)<br>\n1. <u>Do</u> 20:00 SOL - Hausprojekt Solibar + Vokü<br>\n2.+4. <u>Do</u> 20:00 Elotitos Solibar + Vokü<br>\n2. <u>Fr</u> 18:00 Pizza Vokü + CryptoParty ab 20:00<br>\n3. <u>Fr</u> 20:00 Initiative gegen Unerträglichkeiten  nouvelle dune Solibar + Vokü<br>\n4. <u>Fr</u> 21:00 Tresen der Anarchistischen Gruppe Neukölln (AGN)<br>\n1.+3. <u>So</u> 14:00 Vegan Anarchists Soli Pizza Brunch<br>\n2. <u>So</u> 13:00 munch_mob Solibrunch<br>\n3. <u>So</u> 19:00 Calais Migrant Solidarity Solibar + Vokü<br>\n4. <u>So</u> 19:30 VoKüno Vokü und Film (Film fängt 20:30 an)",
    "www": "http://b5355.noblogs.org ",
    "email": "mailto:b5355@riseup.net",
    "telephone": "       ",
    "coordinates": [
      13.4465268,
      52.470853
    ]
  },
  {
    "name": "Babylonia",
    "full_address": "Cuvrystr. 20-23, 10999 Berlin(2. Hinterhof im Kerngehäuse, 1. Stock)",
    "address": "Cuvrystr. 21, 10997 Berlin",
    "info": "Selbstverwaltetes Zentrum zum Sprachenlernen (10 verschiedene Sprachen)<br>Büro: Mo-Do 15:00-17:00<br>\nAnmeldung Deutschkurse: Di 12:00-15:00<br>\nSozialberatung: Mo 13:30-17:00 (Englisch, Spanisch, Italienisch, Deutsch)",
    "www": "http://www.babylonia.de",
    "email": "mailto:info@babylonia.de",
    "telephone": "       Tel.: 030-611 60 89   ",
    "coordinates": [
      13.4432729,
      52.4973407
    ]
  },
  {
    "name": "Baiz",
    "full_address": "Schönhauser Allee 26 A (Ecke Wörther Str.), 10435 Berlin( U Senefelderplatz, Eberswalder Str.)",
    "address": "Schönhauser Allee 26 A , 10435 Berlin",
    "info": "Kultur- und Schankwirtschaft<br><u>Täglich</u> ab 16:00 bis Barmensch am Ende<br>\n<u>Mi</u>: Vorträge, Diskussionen und Filme mit eher politischer Ausrichtung, Kickerturniere<br>\n<u>Do</u>: Kulturbühne mit Musik, Text, Theater u.a.<br>\n<u>Fr</u>: einmal monatlich Roter Freitag<br>\n<u>Sa</u>: Straße der Besten, Domino-, Poker- u.a. Turniere<br>\n<u>So</u>: Filmklub \"Lichtbildung\"",
    "www": "http://www.baiz.info",
    "email": "mailto:mts@baiz.info",
    "telephone": "       ",
    "coordinates": [
      13.412778,
      52.5358887
    ]
  },
  {
    "name": "BamM! (Büro für antimilitaristische Massnahmen)",
    "full_address": "Karl-Kunger-Str. 18, 12435 Berlin(S-Bhf. Treptower Park)",
    "address": "Karl-Kunger-Str. 18, 12435 Berlin",
    "info": "Tipps zu Totalverweigerung, Musterungsboykott, Wehrpflichtvermeidung<br>Di + Fr 13:00-18:00 meistens (aber vorher anrufen)",
    "www": "http://www.bamm.de",
    "email": "mailto:info@bamm.de",
    "telephone": "       Tel.: 030-61 07 44 01   Fax: 030-61 07 44 10   ",
    "coordinates": [
      13.4479792,
      52.490574
    ]
  },
  {
    "name": "Bandito Rosso",
    "full_address": "Lottumstr. 10a, 10119 Berlin(U Rosa-Luxemburg-Platz)",
    "address": "Lottumstr. 10a, 10119 Berlin",
    "info": "<br>Mo 21:00 ça va péter!<br>\nMi 21:00 Kinotag<br>\n1. Do 21:00 Antifa-Cocktail-Solitresen (AAPB)<br>\n2.+4. Do 21:00 Lucie Film<br>\n3. Do 20:00 RASH-Crew<br>\nFr 20:00 leckeres Drei-Gänge-Menü (vegan/manchmal auch vegetarisch)<br>\nletzter Sa 21:00 Tresenguerrilla<br>\nSo 19:30 Morgen ist Montag! Tatort-Café",
    "www": "http://www.banditorosso.net",
    "telephone": "    ",
    "coordinates": [
      13.4072713,
      52.5308795
    ]
  },
  {
    "name": "Baobab",
    "full_address": "Greifswalder Str. 4 , 10405 Berlin(Tram: M4, M2)",
    "address": "Greifswalder Str. 4 , 10405 Berlin",
    "info": "Infoladen Eine-Welt e.V.<br>",
    "www": "http://www.baobab-infoladen.de",
    "email": "mailto:info@baobab-infoladen.de",
    "telephone": "       Tel.: 030-4426174   Fax: 030-44359066   ",
    "coordinates": [
      13.4254535,
      52.5286403
    ]
  },
  {
    "name": "Bauwagenplatz am Kinderbauernhof",
    "full_address": "Adalbertstrasse, 10999 Berlin(zwischen Kotti und Köpi)",
    "address": "Adalbertstrasse, 10999 Berlin",
    "info": "Im Sommer ist ein Kino geplant<br>Jeden Sonntag ab 14:00 Besichtigung der Komposttoilette",
    "telephone": " ",
    "coordinates": [
      13.4192756,
      52.5012891
    ]
  },
  {
    "name": "Bibliothek der Freien",
    "full_address": "Greifswalder Str. 4, 2. Hof, Raum 1102, 10405 Berlin",
    "address": "Greifswalder Str. 4, 2. Hof, Raum 1102, 10405 Berlin",
    "info": "Anarchistische Bücherei im Haus der Demokratie.<br>Information und Ausleihe:<br>\nFr 18:00-20:00 und nach Vereinbarung<br>\nMo Veranstaltungen",
    "www": "http://www.bibliothekderfreien.de",
    "telephone": "    ",
    "coordinates": [
      13.4230065,
      52.53419359999999
    ]
  },
  {
    "name": "Buchladen zur schwankenden Weltkugel",
    "full_address": "Kastanienallee 85, 10435 Berlin",
    "address": "Kastanienallee 85, 10435 Berlin",
    "info": "<br>Mo-Fr 11.00-19.00 Uhr\nSa 11.30-18.00 Uhr",
    "www": "http://buchladen-weltkugel.de",
    "email": "mailto:info[at]buchladen-weltkugel.de",
    "telephone": "       Tel.: 030-4409158   ",
    "coordinates": [
      13.4088787,
      52.5375581
    ]
  },
  {
    "name": "Bunte Kuh",
    "full_address": "Bernkastelerstr. 78 (Weissensee), 13088 Berlin(Tram 12, 24 Rennbahnstr.)",
    "address": "Bernkastelerstr. 78 , 13088 Berlin",
    "info": "<br>Mi 19:00 Punkrock-Solitresen<br>\nDo 19:00 Café<br>\njeden 1. Do 19:30 Antifa-Infocafé<br>\njeden 1.+3. Do 20:00 offene Jam-Session<br>\nDo Fahrrad- und Motorradwerkstatt (vorher anmelden)",
    "www": "http://www.buntekuhverein.de",
    "email": "mailto:buntekuh@t-online.de",
    "telephone": "       ",
    "coordinates": [
      13.4700603,
      52.55705880000001
    ]
  },
  {
    "name": "Bödiker 9",
    "full_address": "Bödikerstr. 9 (1. HH), 10245 Berlin(S-Bhf. Ostkreuz)",
    "address": "Bödikerstr. 9 , 10245 Berlin",
    "info": "<br>Mo 20:00 Küfa<br>\nFr 16:00 Hackers Lounge (Selbsthilfe und Nerdtreff, offen für alle Marken)<br>\nFr 19:00 Küfa<br>\nFr 20:00 Film",
    "www": "http://www.bodi9.org",
    "telephone": "    ",
    "coordinates": [
      13.4639561,
      52.4999334
    ]
  },
  {
    "name": "B_books",
    "full_address": "Lübbener Str. 14, 10997 Berlin(U-Bhf. Görlitzer Bahnhof)",
    "address": "Lübbener Str. 14, 10997 Berlin",
    "info": "Buchhandlung und Verlag<br>Montags abends Veranstaltungen (\"Montagspraxis\")",
    "www": "http://www.bbooksz.de",
    "email": "mailto:x@bbooksz.de",
    "telephone": "       Tel.: 030-6117844   Fax: 030-6185810   ",
    "coordinates": [
      13.43804,
      52.49969
    ]
  },
  {
    "name": "Café Cralle",
    "full_address": "Hochstädterstr. 10a, 13347 Berlin(U-Bhf. Leopoldplatz)",
    "address": "Hochstädterstr. 10a, 13347 Berlin",
    "info": "Bar und Wohnzimmer in kollektiver Selbstverwaltung. Ausstellungen, Lesebühne, Filme, Veranstaltungen, Münztelefon und Pampe.<br>Jeden <b>Montag</b>: <a href=\"http://www.lesetresen.de\">Lesetresen</a> mit Janoph und Hinark<br>\nJeden <b>Dienstag</b>: <a href=\"http://cafecralle.wordpress.com/2012/10/29/gebardensprachkurs\">Gebärdensprachkurs</a> von 19:00 bis 21:00 mit Rita.<br>\nJeden <b>Mittwoch</b>: \"Seht oder geht\". Ab 21:00 mit Popcorn, Leinwand, Sofa.<br>\nJeden <b>1. Mittwoch</b> alle 3 Monate: Twillight Zone ab 21:00.<br>\nJeden <b>Freitag</b>: Cocktails two for one.\nJeden <b>Sonntag</b>: ab 19:00 bis um 24:00 Uhr Schaut \"Tatort\" und genießt eine leckere Suppe dabei.<br>\n<b>Montag</b> bis <b>Freitag</b>: Feierabendbier... von 19:00 bis 20:00, jedes Bier zum halben Preis.",
    "www": "http://www.cafe-cralle.net",
    "email": "mailto:cafecralle@riseup.net",
    "telephone": "       Tel.: 030-455 30 01   ",
    "coordinates": [
      13.36323,
      52.55066
    ]
  },
  {
    "name": "Café Köpenick",
    "full_address": "Seelenbinderstr. 54, 12555 Berlin(S-Bhf. Köpenick)",
    "address": "Seelenbinderstr. 54, 12555 Berlin",
    "info": "Kneipe, Konzerte, Küfa und Zivildienstberatung<br>",
    "www": "http://www.hdjk.de",
    "telephone": "    Tel.: 030-6520438   ",
    "coordinates": [
      13.58279,
      52.45522
    ]
  },
  {
    "name": "Café Morgenrot",
    "full_address": "Kastanienallee 85, 10435 Berlin(U-Bhf. Eberswalder Strasse)",
    "address": "Kastanienallee 85, 10435 Berlin",
    "info": "Betrieb in kollektiver Selbstverwaltung<br>Mo geschlossen (weil Plenum)<br>\nDi-Do 12:00-01:00<br>\nFr+Sa 11:00-03:00<br>\nSo 11:00-01:00<br>\nFr-So 11:00-15:00 vegan-vegetarisches Frühstücksbuffet\n",
    "www": "http://www.cafe-morgenrot.de",
    "email": "mailto:info@cafe-morgenrot.de",
    "telephone": "       Tel.: 030-44317844   ",
    "coordinates": [
      13.4088787,
      52.5375581
    ]
  },
  {
    "name": "Clash",
    "full_address": "Gneisenaustr. 2a, 10961 Berlin(U6/U7 Mehringdamm)",
    "address": "Gneisenaustr. 2a, 10961 Berlin",
    "info": "Konzerte, Parties, Veranstaltungen, Kneipe<br>Mo-Fr 12:00 bis nachts (ab 12:00 Mittagstisch, veg. + Fleisch)<br>\nSa+So 17:00 bis nachts (bei Veranstaltungen ändert sich das manchmal)<br>\nSo 20:00 \"Futtern wie bei Muttern\" mit Funky Music",
    "www": "http://www.clash-berlin.de",
    "email": "mailto:info@clash-berlin.de",
    "telephone": "       Tel.: 030-32526387   Fax: 030-32526388   ",
    "coordinates": [
      13.3884225,
      52.49191769999999
    ]
  },
  {
    "name": "Club U5 (Hellersdorf)",
    "full_address": "Auerberger Ring 25, 12619 Berlin(U-Bhf. Cottbusser Platz)",
    "address": "Auerberger Ring 25, 12619 Berlin",
    "info": "<br>Mi 17:00 Punktresen (Punk aus der Dose, Kickern und Billard)",
    "telephone": " Tel.: 030-92212361   ",
    "coordinates": [
      13.59916,
      52.53325
    ]
  },
  {
    "name": "ComicBibliothek 'Bei Renate'",
    "full_address": "Tucholskystr. 32, 10117 Berlin(U8 Rosenthaler Platz - S1 S2 Oranienburger Str.)",
    "address": "Tucholskystr. 32, 10117 Berlin",
    "info": "Lesen, Leihen, Selbermachen. A wie Ausstellungen, B wie Beratung, C wie Comic-Kurse... V wie Vendetta.<br>Mo-Do 14:00-20:00; Fr. 14:00-19:00; jeden ersten Mo im Monat ab 20:00 Stammtisch; jeden letzten Fr im Monat ab 21:00 \"Mono Brutal\"",
    "www": "http://www.renatecomics.de",
    "email": "mailto:auge@renatecomics.de",
    "telephone": "       Tel.: 030-97005815   ",
    "coordinates": [
      13.3937352,
      52.52621200000001
    ]
  },
  {
    "name": "Convoi (Wagenburg)",
    "full_address": "Rigaerstr. 6/7, 10247 Berlin(U-Bhf. Frankfurter Tor)",
    "address": "Rigaerstr. 6/7, 10247 Berlin",
    "info": "<br>",
    "telephone": " ",
    "coordinates": [
      13.45519,
      52.51785
    ]
  },
  {
    "name": "Dr. Zineatron",
    "full_address": "Scharnweberstr. 38, 10247 Berlin(U-Bhf. Samariterstrasse)",
    "address": "Scharnweberstr. 38, 10247 Berlin",
    "info": "Anarchist infoladen, zine library/distro and workshop and arts space<br>Tues 19:00-21:00",
    "www": "http://doctorzineatron.wordpress.com",
    "email": "mailto:dr.zineatron@riseup.net",
    "telephone": "       ",
    "coordinates": [
      13.46412,
      52.51289999999999
    ]
  },
  {
    "name": "Drugstore",
    "full_address": "Potsdamer Strasse 180, 10783 Berlin(U-Bhf. Bülowstrasse)",
    "address": "Potsdamer Strasse 180, 10783 Berlin",
    "info": "<br>Di 18:00 Offenes Plenum<br>\nJeden 1. Sa im Monat 22:00 Nox Arcana<br>\nSo Popcornkino (18:00 oder 20:00, je nach Anzahl der Filme)<br>\nDer Eintritt ist immer frei!",
    "www": "http://www.drugstore-berlin.de",
    "email": "mailto:kontakt@drugstore-berlin.de",
    "telephone": "       Tel.: 030-902776169   ",
    "coordinates": [
      13.3606,
      52.49386
    ]
  },
  {
    "name": "DruzBar",
    "full_address": "New Yorck im Bethanien, 10997 Berlin(U-Bhf. Görlitzer Bahnhof)",
    "address": "New Yorck im Bethanien, 10997 Berlin",
    "info": "<br>1.+3.+5. Mo im Monat 20:00 VoKü, Soli-Cocktailbar zugunsten politischer Projekte",
    "telephone": " ",
    "coordinates": [
      13.4334017,
      52.5004054
    ]
  },
  {
    "name": "EA (Ermittlungsausschuss)",
    "full_address": "Gneisenaustr. 2a, 10961 Berlin(U-Bhf. Mehringdamm)",
    "address": "Gneisenaustr. 2a, 10961 Berlin",
    "info": "Hilfe und Beratung bei Festnahmen und Prozessen, Vermittlung von RechtsanwältInnen. Während und nach Demos in der Regel besetzt.<br>Di 20:00-22:00",
    "www": "http://www.mehringhof.de/projekte/ea.htm",
    "telephone": "    Tel.: 030-6922222   ",
    "coordinates": [
      13.3884225,
      52.49191769999999
    ]
  },
  {
    "name": "Eiszeit-Kino",
    "full_address": "Zeughofstr. 20, 10997 Berlin(U Görlitzer Bahnhof)",
    "address": "Zeughofstr. 20, 10997 Berlin",
    "info": "Kino<br>Kinotag: Di (5 Euro)",
    "www": "http://www.eiszeit-kino.de",
    "email": "mailto:SuzanBeermann@gmx.net",
    "telephone": "       Tel.: 030-6116016   ",
    "coordinates": [
      13.4330561,
      52.500318
    ]
  },
  {
    "name": "Erreichbar",
    "full_address": "Reichenberger Str. 63a HH, 10999 Berlin(U-Bhf. Görlitzer Bahnhof)",
    "address": "Reichenberger Str. 63a HH, 10999 Berlin",
    "info": "<br>Sa 16:00 Go- und Schach-Treff<br>\nSo 12:00 veganer AntiRa-Soli-Brunch",
    "www": "http://reiche63a.blogsport.de",
    "email": "mailto:erreichbar@riseup.net",
    "telephone": "       ",
    "coordinates": [
      13.43056,
      52.49525
    ]
  },
  {
    "name": "f.a.q.",
    "full_address": "Jonasstr. 40, 12053 Berlin(U8 Leinestr.)",
    "address": "Jonasstr. 40, 12053 Berlin",
    "info": "Antisexistischer Infoladen<br>",
    "www": "http://www.as-laden.info",
    "telephone": "    ",
    "coordinates": [
      13.43105,
      52.47075
    ]
  },
  {
    "name": "FAU-Lokal",
    "full_address": "Grüntaler Str. 24, 13357 Berlin(S Bornholmer Str., S Gesundbrunnen)",
    "address": "Grüntaler Str. 24, 13357 Berlin",
    "info": "Anarchosyndikalistisches Gewerkschaftslokal der Freien ArbeiterInnen Union (FAU-IAA)<br>Fr 17:00-20:00 offenes Büro<br>\nFr 17:00-18:00 Sozial- und Arbeitsrechtsberatung der FAU Berlin. In Kooperation mit einem Rechtsanwalt<br>\nSyndikatstreffen:<br>\nAllgemeines Syndikat: 2. Mi im Monat 19:00 Vollversammlung<br>\nGewerkschaftliche Beratung: 2. und 4. Fr im Monat 17:00-18:00 (am Besten meldet ihr euch per E-Mail an: faub-kontakt@fau.org)<br>\nBildungssyndikat: 1., 3. u. ggf. 5. Mi 20:00<br>\nKultur- u. Mediensyndikat: 1. und 3. Do 20:00<br>\nGNNL: letzter Do im Monat 20:00",
    "www": "http://www.berlin.fau.org",
    "email": "mailto:faub-kontakt@fau.org",
    "telephone": "       Tel.: 030-28700804   Fax: 030-28700813   ",
    "coordinates": [
      13.3899964,
      52.5539641
    ]
  },
  {
    "name": "FDCL",
    "full_address": "Gneisenaustr. 2a, 10961 Berlin(U-Bhf. Mehringdamm)",
    "address": "Gneisenaustr. 2a, 10961 Berlin",
    "info": "Forschungs- und Dokumentationszentrum Chile-Lateinamerika e.V. Grosses Archiv.<br>",
    "www": "http://www.fdcl.org",
    "email": "mailto:fdcl-berlin@t-online.de",
    "telephone": "       Tel.: 030-693 40 29   Fax: 030-6926590   ",
    "coordinates": [
      13.3884225,
      52.49191769999999
    ]
  },
  {
    "name": "Fehre 6",
    "full_address": "Fehrbellinerstr. 6, 10119 Berlin(U-Bhf. Rosa-Luxemburg-Platz)",
    "address": "Fehrbellinerstr. 6, 10119 Berlin",
    "info": "<br>Mo 21:00 Montagsbar<br>\nDo 21:00 Café Trockenfisch<br>\nSo 20:00 \"lauter niemand\" - Literaturlabor<br>\nimmer mal wieder: Filmabend, Karaokeabend, Vorstellungen des Transit-Theater-Berlin<br>\nKicker frei",
    "telephone": " ",
    "coordinates": [
      13.40995,
      52.53119
    ]
  },
  {
    "name": "FFM",
    "full_address": "Gneisenaustr. 2a,  10961 Berlin",
    "address": "Gneisenaustr. 2a,  10961 Berlin",
    "info": "Forschungsgesellschaft Flucht und Migration\n<br>",
    "www": "http://www.ffm-berlin.de",
    "email": "mailto:ffm@ipn.de",
    "telephone": "       Tel.: 030-6935670   Fax: 030-69508642/43   ",
    "coordinates": [
      13.3884225,
      52.49191769999999
    ]
  },
  {
    "name": "Fischladen",
    "full_address": "Rigaerstr. 83, 10247 Berlin(U-Bhf. Samariterstrasse)",
    "address": "Rigaerstr. 83, 10247 Berlin",
    "info": "Vereinsräume des Fischbrötchen e.V.<br>Billard for free",
    "email": "mailto:fischladen@Safe-mail.net",
    "telephone": "    Tel.: 030-4280 9944   ",
    "coordinates": [
      13.46192,
      52.51717
    ]
  },
  {
    "name": "Florida Wedding",
    "full_address": "Lüderitzstr. 13,  Berlin(U-Bhf. Seestrasse)",
    "address": "Lüderitzstr. 13,  Berlin",
    "info": "<br>So 20:00 Bar, 21:00 Kino umsonst und drinnen",
    "telephone": " ",
    "coordinates": [
      13.34801,
      52.5504
    ]
  },
  {
    "name": "Food For Action",
    "full_address": ",  Berlin",
    "address": ",  Berlin",
    "info": "\"Food For Action\" kocht auf politischen Aktionen und Veranstaltungen, um den Widerstand zu stärken (\"Ohne Mampf kein Kampf!\") und um politisch und ökologisch sinnvolle Alternativen in die politische Praxis zu integrieren.<br>Plenums-Termin und Kontakt über Email-Adresse!",
    "www": "http://food4action.blogsport.de",
    "email": "mailto:kochen@food4action.de",
    "telephone": "       ",
    "coordinates": [
      13.404954,
      52.52000659999999
    ]
  },
  {
    "name": "Food Not Bombs c/o M 99",
    "full_address": "Manteuffelstr. 99, 10997 Berlin(U-Bhf. Görlitzer Bahnhof)",
    "address": "Manteuffelstr. 99, 10997 Berlin",
    "info": "Kontaktadresse<br>",
    "telephone": " ",
    "coordinates": [
      13.4281498,
      52.5009343
    ]
  },
  {
    "name": "FREE e.V.",
    "full_address": "Gitschiner Str. 92, 10969 Berlin",
    "address": "Gitschiner Str. 92, 10969 Berlin",
    "info": "Workshops im Musikbereich<br>Jede Woche jeweils am:<br>\nDi: DJ-Workshop<br>\nMi: Beschallungs-Technik<br>\nDo: Computer als Musik-Instrument<br>\nAlle Workshops sind kostenlos.<br>\nAnmeldung unter Tel. 0176-22515093",
    "email": "mailto:contact@xfreex.net",
    "telephone": "    ",
    "coordinates": [
      13.40116,
      52.49867
    ]
  },
  {
    "name": "Friedel 54",
    "full_address": "Friedelstr. 54, 12047 Berlin(U-Bhf. Hermannplatz)",
    "address": "Friedelstr. 54, 12047 Berlin",
    "info": "<br>",
    "www": "http://friedel54.noblogs.org",
    "telephone": "    ",
    "coordinates": [
      13.42732,
      52.48869999999999
    ]
  },
  {
    "name": "Galerie Olga Benario",
    "full_address": "Richardstr. 104, 12043 Berlin(U-Bhf. Karl-Marx-Strasse)",
    "address": "Richardstr. 104, 12043 Berlin",
    "info": "Ausstellungen und Veranstaltungen<br>So-Fr 18:00-24:00",
    "www": "http://www.galerie-olga-benario.de",
    "email": "mailto:gob@antifa-net.de",
    "telephone": "       Tel.: 030-32702289 od. 030-6241767   ",
    "coordinates": [
      13.44034,
      52.47769
    ]
  },
  {
    "name": "Gegeninformations-Büro",
    "full_address": "Kohlfurterstr. 40, 10999 Berlin",
    "address": "Kohlfurterstr. 40, 10999 Berlin",
    "info": "Ein Zusammenschluß parteipolitisch unabhängiger Menschen mit dem Ziel, der (ver-)öffentlich(t)en Kriegspropaganda mit Aufklärung in Wort und öffentlicher Aktion in der Tat etwas entgegenzusetzen.<br>Bürozeiten: Di 20:00-22:00; offenes Plenum: Mi 20:00",
    "www": "http://www.gegeninformationsbuero.de",
    "email": "mailto:mail@gegeninformationsbuero.de",
    "telephone": "       ",
    "coordinates": [
      13.41767,
      52.4965
    ]
  },
  {
    "name": "Groni50 (Wedding)",
    "full_address": "Groninger Str. 50, 13347 Berlin(U8/U9 Osloerstr. - U6 Seestr.)",
    "address": "Groninger Str. 50, 13347 Berlin",
    "info": "<br>jeden 1. + 3. Di im Monat 20:00 vegan/veg. Vokü + Film/Lesung",
    "www": "http://groni50.org",
    "telephone": "    ",
    "coordinates": [
      13.36204,
      52.55494
    ]
  },
  {
    "name": "Hanfmuseum",
    "full_address": "Mühlendamm 5a, 10178 Berlin",
    "address": "Mühlendamm 5a, 10178 Berlin",
    "info": "<br>Di-Fr 10:00-20:00 bei Anmeldung sind Führungen und Film möglich<br>\nDi 19:00 Hanfparade Organisationstreffen<br>\nSa-So 12:00-20:00<br>\nDo 18:00-19:00 Rechtsberatung<br>\nweitere Initiativen im Haus sind Hanfparade e.V., Hanf e.V.,Grüne-Hilfe... Für Marihuana-Verfolgte haben wir nützliche Tipps.",
    "www": "http://www.hanfmuseum.de",
    "email": "mailto:info@hanfmuseum.de",
    "telephone": "       Tel.: 030-2424827   Fax: 030-40042751   ",
    "coordinates": [
      13.4083144,
      52.5166481
    ]
  },
  {
    "name": "Haus der Demokratie",
    "full_address": "Greifswalder Str. 4, 10405 Berlin(Tram 2, 3, 4 und Bus 200, 142, 257)",
    "address": "Greifswalder Str. 4, 10405 Berlin",
    "info": "<br>",
    "www": "http://www.hausderdemokratie.de",
    "email": "mailto:kontakt@hausderdemokratie.de",
    "telephone": "       Tel.: 030-2043506   Fax: 030-20165522   ",
    "coordinates": [
      13.4254535,
      52.5286403
    ]
  },
  {
    "name": "Heilehaus",
    "full_address": "Waldemarstr. 36, 10999 Berlin",
    "address": "Waldemarstr. 36, 10999 Berlin",
    "info": "Duschen und Wäsche waschen <br>täglich 11:00 bis 19:00<br> \nSa, So, Mi: Männer + Frauen<br>\nMo+Fr: Männer<br>\nDi+Do: Frauen",
    "telephone": " ",
    "coordinates": [
      13.4191678,
      52.5034581
    ]
  },
  {
    "name": "Infoladen Daneben",
    "full_address": "Liebigstr. 34, 10247 Berlin(U-Bhf. Frankfurter Tor)",
    "address": "Liebigstr. 34, 10247 Berlin",
    "info": "Infoladen (Free-Internet, Archiv, aktuelle Zeitschriften, Revolutionsbedarf)<br>Mo-Fr 18:00-20:00<br>\nPlenum: jeweils 1. Montag im Monat 20:00",
    "www": "http://www.daneben.info",
    "email": "mailto:daneben@nadir.org",
    "telephone": "       ",
    "coordinates": [
      13.45694,
      52.51813
    ]
  },
  {
    "name": "Initiative gegen das Chipkartensystem",
    "full_address": "Greifswalder Str. 4 (Haus der Demokratie und Menschenrechte), 10405 Berlin",
    "address": "Greifswalder Str. 4 , 10405 Berlin",
    "info": "c/o Berliner Büro für Gleiche Rechte<br>",
    "www": "http://www.chipkartenini.squat.net",
    "email": "mailto:konsumfuerfreiesfluten@yahoo.com",
    "telephone": "       Tel.: 0160-3410547   ",
    "coordinates": [
      13.4254535,
      52.5286403
    ]
  },
  {
    "name": "Intercambio",
    "full_address": "Kreutziger Str. 18, 10247 Berlin(U-Bhf. Samariterstrasse)",
    "address": "Kreutziger Str. 18, 10247 Berlin",
    "info": "Infoladen<br>",
    "email": "mailto:intercambio-infoladen@gmx.net",
    "telephone": "    ",
    "coordinates": [
      13.4601161,
      52.5130646
    ]
  },
  {
    "name": "Irving-Zola-Haus",
    "full_address": "Ohlauerstr. 12, 10999 Berlin(U Kottbusser Tor, Görlitzer Bahnhof)",
    "address": "Ohlauerstr. 12, 10999 Berlin",
    "info": "Nach der erfolgreichen Doppelbesetzung auf dem Gelände der ehemaligen Gerhart-Hauptmann-Schule in Kreuzberg am 8. Dezember 2012 entstand dort das Refugee-Strike-House und das Irving-Zola-Haus.<br>jeden Tag von 16:00-20:00 offen<br>\nMi 19:00 Solivokü",
    "www": "http://irvingzolahaus.blogsport.de",
    "email": "mailto:irvingzolahaus@riseup.net",
    "telephone": "       ",
    "coordinates": [
      13.4312247,
      52.4964944
    ]
  },
  {
    "name": "JUP",
    "full_address": "Florastr. 84, 13187 Berlin(S-/U-Bhf. Pankow oder S-Bhf. Wollankstrasse)",
    "address": "Florastr. 84, 13187 Berlin",
    "info": "Unabhängiges Jugendzentrum Pankow<br>Di, Do, So 20:00 Tresen im Café und Umsonst Boutique<br>\njeden 1. Mo 19:00 Filmabend<br>\njeden 4. Mo 19:00 Antifa Tresen<br>\njeden Di: 20:00 Uhr KüFa (vegan/vegetarisch) ",
    "www": "http://www.jup-ev.org",
    "email": "mailto:info@jup-ev.org",
    "telephone": "       Tel.: 030-48638200   Fax: 030-48638202   ",
    "coordinates": [
      13.4001965,
      52.5659162
    ]
  },
  {
    "name": "K19 Café",
    "full_address": "Kreutzigerstr. 19, 10247 Berlin(U-Bhf. Samariterstrasse)",
    "address": "Kreutzigerstr. 19, 10247 Berlin",
    "info": "<br>Mo 20:00 SONED-Abend, Weltküche<br>\nMi 20:00 Kiezsuppe (leckeres Essen mit Technobeatz)<br>\nDo 20:00 Kneipe und Vokü",
    "telephone": " ",
    "coordinates": [
      13.4601739,
      52.5132186
    ]
  },
  {
    "name": "K9",
    "full_address": "Kinzigstr. 9, 10245 Berlin(U-Bhf. Samariterstrasse)",
    "address": "Kinzigstr. 9, 10245 Berlin",
    "info": "Grössenwahn &amp; Leichtsinn (Veranstaltungsetage und Partykeller)<br>\nAnfragen für Veranstaltungen <a href=\"mailto:groessenwahn@kinzig9.de\">groessenwahn@kinzig9.de</a><br>",
    "www": "http://www.kinzig9.de",
    "telephone": "    ",
    "coordinates": [
      13.4661017,
      52.5136887
    ]
  },
  {
    "name": "Kadterschmiede",
    "full_address": "Rigaer Str. 94, 10245 Berlin(U-Bhf. Frankfurter Tor)",
    "address": "Rigaer Str. 94, 10245 Berlin",
    "info": "<br>Mi 20:00 Vokü",
    "telephone": " ",
    "coordinates": [
      13.4580944,
      52.5177886
    ]
  },
  {
    "name": "Kampagne gegen Wehrpflicht, Zwangsdienste und Militär",
    "full_address": "Kopenhagener Str. 71, 10437 Berlin(U/S Schönhauser Allee)",
    "address": "Kopenhagener Str. 71, 10437 Berlin",
    "info": "<br>Bürozeiten: montags bis freitags von 10:00 bis 18:00",
    "www": "http://www.kampagne.de",
    "email": "mailto:info@kampagne.de",
    "telephone": "       Tel.: 030-440 130-0   Fax: 030-440 130-29   ",
    "coordinates": [
      13.41056,
      52.54855999999999
    ]
  },
  {
    "name": "kanalB",
    "full_address": "Reichenberger Str.121, 10999 Berlin",
    "address": "Reichenberger Str.121, 10999 Berlin",
    "info": "Trash Video Magazin, Internetsender <br>",
    "www": "http://www.kanalB.de",
    "email": "mailto:wir@kanalb.de",
    "telephone": "       Tel.: 030-61626999   ",
    "coordinates": [
      13.43212,
      52.49534
    ]
  },
  {
    "name": "Kanzleramt Kulturbanausen e.V.",
    "full_address": "Lohmühlenstrasse, 12435 Berlin",
    "address": "Lohmühlenstrasse, 12435 Berlin",
    "info": "<br>Café jeden So 14:00 bis open end;\nKino mittwochs um 21:00 (Einlass um 20:00)",
    "telephone": " ",
    "coordinates": [
      13.4444856,
      52.4930107
    ]
  },
  {
    "name": "Kastanienkeller",
    "full_address": "Kastanienallee 85 HH, 10435 Berlin(U-Bhf. Eberswalder Strasse)",
    "address": "Kastanienallee 85 HH, 10435 Berlin",
    "info": "Mehrzweck-Vereinsraum  der BesetzerInnen im Prenzlauer Berg (BIP e.V.) - Eingang durchs Café Morgenrot.<br>Di: vegane Volxküche<br>\nDo: Videokino<br>\nFr/Sa: Konzerte, Partys u.v.m.",
    "www": "http://www.k85.squat.net",
    "email": "mailto:kastanie85@gmx.net",
    "telephone": "       ",
    "coordinates": [
      13.4088787,
      52.5375581
    ]
  },
  {
    "name": "KTS13",
    "full_address": "Karpfenteichstr. 13, 12435 Berlin(S Plänterwald)",
    "address": "Karpfenteichstr. 13, 12435 Berlin",
    "info": "Projekt- und Wagenplatz, Linienhof im Exil, Betonsalon, Proberaum, (Antirassistisches) Gartenprojekt<br>jeden letzten Samstag im Monat Kaffee und Kuchen ab 15:00",
    "www": "http://kts13.blogsport.de",
    "email": "mailto:visionen@riseup.net",
    "telephone": "       ",
    "coordinates": [
      13.46608,
      52.48255
    ]
  },
  {
    "name": "KuBiZ",
    "full_address": "Bernkasteler Str. 78, 13088 Berlin(Tram 4, 12, 13, 27)",
    "address": "Bernkasteler Str. 78, 13088 Berlin",
    "info": "Kultur- und Bildungszentrum Raoul Wallenberg<br>Infostunde: Mi 16:00<br>\nDi 15:00 Umsonstladen-Treffen<br>\nWeitere Termine auf der Internetseite",
    "www": "http://www.kubiz-wallenberg.de",
    "email": "mailto:kontakt@kubiz-wallenberg.de",
    "telephone": "       Tel.: 030-96201345   ",
    "coordinates": [
      13.4700603,
      52.55705880000001
    ]
  },
  {
    "name": "Kurt-Lade-Klub",
    "full_address": "Grabbeallee 33, 13156 Berlin(Bus 250, 107, N2, Tram M1 Tschaikowskistrasse)",
    "address": "Grabbeallee 33, 13156 Berlin",
    "info": "<br>Di-Do Café von 16:00-22:00 und So 15:00-21:00<br>\nFr+Sa Abendveranstaltungen ab 21:00",
    "www": "http://kurtladeklub.jimdo.com",
    "email": "mailto:info@kurtladeklub.de",
    "telephone": "       Tel.: 030-4857227   ",
    "coordinates": [
      13.39868,
      52.57481
    ]
  },
  {
    "name": "KvU (Kirche von Unten)",
    "full_address": "Storkower Str. 119 , 10407 Berlin(S Landsberger Allee, Greifswalder Str.)",
    "address": "Storkower Str. 119 , 10407 Berlin",
    "info": "<br>Di 19:00 Vollversammlung<br>\nMi 20:00 Punkrocktresen<br>\nDo 20:00 Volxküche<br>\nSo 13:00 Katerfrühstück, 17:00 Film",
    "www": "http://www.kvu-berlin.de",
    "email": "mailto:info@kvu-berlin.de",
    "telephone": "       Tel.: 030-4491172   Fax: 030-47374130   ",
    "coordinates": [
      13.4519811,
      52.5356075
    ]
  },
  {
    "name": "Køpi",
    "full_address": "Köpenicker Str. 137, 10179 Berlin(Nähe Ostbahnhof)",
    "address": "Köpenicker Str. 137, 10179 Berlin",
    "info": "<b>Autonomes Kulturzentrum: Konzerte, Kneipe, Kino, Siebdruck, Sport und Futter</b><br>KØPI-Fightclub, Klettergruppe, Siebdruckwerkstatt Kommandantur -&gt; Website<br>\nMo 21:00 Videokino Peliculoso: Aktuelle Filmreihe<br>\nDi 15:00 - 19:00 Alternative Eastern Europe Café im Aquarium (Eingang links 2. Stock) mit Bibliothek<br>\nDi 17:00 Hardrockcafé und später Punkrockkneipe, ab 20:00 Vokü (vegan)<br>\nMi 18:00 Plenum, anschliessend Punkrockbar mit Vokü (vegan) ab ca. 20:30<br>\nDo 21:00 Videokino Peliculoso<br>\nAn Veranstaltungsfreien Freitagen und Samstagen ab 22:00 Kneipe<br>\nInfoshop KØPI:<br>\nMi 18:00-21:00 Uhr, öfter auch bei Partys &amp; Konzerten 21:00-23:00",
    "www": "http://koepi137.net",
    "email": "mailto:koepi137@koepi137.net",
    "telephone": "       Tel.: 030-2795916   ",
    "coordinates": [
      13.4265271,
      52.5081893
    ]
  },
  {
    "name": "La Casa",
    "full_address": "Wurzener Str. 6, 12627 Berlin(U-Bhf. Louis-Lewin-Strasse)",
    "address": "Wurzener Str. 6, 12627 Berlin",
    "info": "Selbstverwaltetes Jugendzentrum\n<br>Mi 19:00 Kneipe, Billard und Kicker",
    "www": "http://la-casa.so36.net",
    "email": "mailto:la-casa@so36.net",
    "telephone": "       ",
    "coordinates": [
      13.61731,
      52.54221
    ]
  },
  {
    "name": "Laster und Hänger",
    "full_address": "Revaler- Ecke Modersohnstr., 10245 Berlin",
    "address": "Revaler- Ecke Modersohnstr., 10245 Berlin",
    "info": "<br>",
    "telephone": " ",
    "coordinates": [
      13.4588398,
      52.5065685
    ]
  },
  {
    "name": "Lauschangriff",
    "full_address": "Rigaer Str. 103, 10247 Berlin(U-Bhf. Frankfurter Tor)",
    "address": "Rigaer Str. 103, 10247 Berlin",
    "info": "<br>Mo: Bar, Raggaeparty<br>\nDi: Rock'n'Roll-Bar<br>\nMi: Livemusik<br>\nDo: Dosenbier + Punk mit DJ Mogli<br>\nFr: Party<br>\nSa: Party",
    "www": "http://www.lauschangriff-berlin.de",
    "telephone": "    Tel.: 030-42219626   Fax: 030-42219621   ",
    "coordinates": [
      13.45533,
      52.51835999999999
    ]
  },
  {
    "name": "Liberación",
    "full_address": "Kinzigstr. 9, 10247 Berlin(U-Bhf. Samariterstrasse)",
    "address": "Kinzigstr. 9, 10247 Berlin",
    "info": "Café und Kneipe in der K9<br>Täglich ab 19:00, So ab 15:00<br>\nGratiskicker, öfters DJ, Suppe für 2,22 Euro, Fassbier, Zugang und Hangoutarea bei K9-Parties<br>\nDi \"Free pop collision\" mit DJ le Vince und jot oh<br>\nSo 15:00 Kaffee und Kuchen, Kinderecke, Kinderpreise<br>\nSo 20:00 öfters Kleinkunstbühne (Lesungen, Akkustik-Konzerte, etc.)",
    "email": "mailto:liberacion@kinzig9.de",
    "telephone": "    ",
    "coordinates": [
      13.4661017,
      52.5136887
    ]
  },
  {
    "name": "Lichtblick",
    "full_address": "Kastanienallee 77, 10435 Berlin",
    "address": "Kastanienallee 77, 10435 Berlin",
    "info": "Kino<br>",
    "telephone": " ",
    "coordinates": [
      13.40814,
      52.53637
    ]
  },
  {
    "name": "Linienhof",
    "full_address": "Karpfenteichstr. 13, 12435 Berlin(S Plänterwald)",
    "address": "Karpfenteichstr. 13, 12435 Berlin",
    "info": "Werkstattprojekt<br>",
    "www": "http://linienhof.blogsport.de",
    "telephone": "    ",
    "coordinates": [
      13.46608,
      52.48255
    ]
  },
  {
    "name": "Lunte",
    "full_address": "Weisestr. 53, 12049 Berlin(U-Bhf. Boddinstrasse)",
    "address": "Weisestr. 53, 12049 Berlin",
    "info": "Stadtteil- und Infoladen<br>jeden 2. und 4. Mo im Monat 20:00 Anarchosyndikalistischer Tresen<br>\njeden 3. Mo 20:00 Trans-, Inter- &amp; Friends-Tresen<br>\nDi 20:30 Videokino<br>\nMi 12:00-16:00 Offener Treff und Erwerbslosenfrühstück mit Infos zu Hartz IV; 19:30 Rote Hilfe Beratung<br>\nDo 18:00-20:00 Sozialberatung für ALG II Empfänger<br>\nDo 20:00 Volxküche (vegetarisch)<br>\nFr 20:00 Volxküche (Fleisch und vegetarisch)<br>\nSa 16:30 Internet-Café, inkl. Red-Zombies-Neukölln-Stammtisch. Mini-Vokü (ca. 15 Portionen)<br>\njeden 1. und 3. So im Monat 19:30 ANNA-Solitresen",
    "www": "http://www.dielunte.de",
    "email": "mailto:funke@dielunte.de",
    "telephone": "       Tel. + Fax: 030-6223234   ",
    "coordinates": [
      13.4241083,
      52.47775430000001
    ]
  },
  {
    "name": "Lychi",
    "full_address": "Lychenerstr. 60, 10437 Berlin",
    "address": "Lychenerstr. 60, 10437 Berlin",
    "info": "<br>jeden 1. Fr. des Monats ab 20:00 antirassistischer Abend mit Vokü",
    "telephone": " ",
    "coordinates": [
      13.41964,
      52.54487
    ]
  },
  {
    "name": "M 99",
    "full_address": "Manteuffelstr. 99, 10997 Berlin(U-Bhf. Görlitzer Bahnhof)",
    "address": "Manteuffelstr. 99, 10997 Berlin",
    "info": "Infoladen und revolutionärer Supermarkt<br>Mo-Fr 10:00-19:00, Sa 14:00-19:00",
    "telephone": " ",
    "coordinates": [
      13.4281498,
      52.5009343
    ]
  },
  {
    "name": "M29",
    "full_address": "Malmöerstr. 29, 10439 Berlin(S Bornholmer, S/U Schönhauser Allee)",
    "address": "Malmöerstr. 29, 10439 Berlin",
    "info": "Projektraum und Vereinskneipe im Hausprojekt M29 (Prenzlauer Berg)<br>Di 20:00: Vosifa-Solitresen<br>\njeden 1. Di im Monat 20:00 Vokü",
    "www": "http://hausprojekt-m29.org",
    "email": "mailto:hausprojektberlin@googlemail.com",
    "telephone": "       ",
    "coordinates": [
      13.4042817,
      52.549708
    ]
  },
  {
    "name": "Mehringhof",
    "full_address": "Gneisenaustrasse 2a, 10961 Berlin(U-Bhf. Mehringdamm)",
    "address": "Gneisenaustrasse 2a, 10961 Berlin",
    "info": "Veranstaltungsräume<br>Telefon besetzt 10:00-15:00",
    "www": "http://www.mehringhof.de/projekte/portier.htm",
    "telephone": "    Tel.: 030-6918021   Fax: 030-69599697   ",
    "coordinates": [
      13.3884225,
      52.49191769999999
    ]
  },
  {
    "name": "Mensch Meier",
    "full_address": "Storkower Str. 121, 10407 Berlin",
    "address": "Storkower Str. 121, 10407 Berlin",
    "info": "<br>",
    "www": "http://menschmeier.berlin/",
    "telephone": "    ",
    "coordinates": [
      13.4524155,
      52.53516219999999
    ]
  },
  {
    "name": "Meuterei",
    "full_address": "Reichenberger Str. 58, 10999 Berlin(U8 Kottbusser Tor, U1 Görlitzer Bhf.)",
    "address": "Reichenberger Str. 58, 10999 Berlin",
    "info": "Veranstaltungen, Kneipe<br>Mo-Sa ab 19:00-???<br>\nSo 19:00 bis 01:00<br>\nKneipenplenum: 15:00 jeden 2. Mo",
    "www": "http://www.meuterei.tk",
    "email": "mailto:meuterei@riseup.net",
    "telephone": "       ",
    "coordinates": [
      13.42862,
      52.49583
    ]
  },
  {
    "name": "Müßiggang",
    "full_address": "Oranienstr. 14a (Heinrichplatz), 10999 Berlin(U1 Kottbusser Tor, Görlitzer Bahnhof)",
    "address": "Oranienstr. 14a , 10999 Berlin",
    "info": "Second-Hand-Buchladen<br>Mo-Fr ca. 13:00-19:00",
    "www": "http://www.muessiggang.net",
    "telephone": "    ",
    "coordinates": [
      13.4235859,
      52.50060620000001
    ]
  },
  {
    "name": "Netzwerk",
    "full_address": "Gneisenaustrasse 2a, 10961 Berlin(U-Bhf. Mehringdamm)",
    "address": "Gneisenaustrasse 2a, 10961 Berlin",
    "info": "Förderkreis der politischen Selbsthilfe (finanzielle Unterstützung)<br>Mo 13:00-18:00, Di-Do 12:00-15:00",
    "www": "http://www.netzwerk-selbsthilfe.de",
    "telephone": "    Tel.: 030-6913072   Fax: 030-6913005   ",
    "coordinates": [
      13.3884225,
      52.49191769999999
    ]
  },
  {
    "name": "New Yorck im Bethanien",
    "full_address": "Mariannenplatz 2A, 10997 Berlin(U Görlitzer Bahnhof, Kottbuser Tor; S Ostbahnhof)",
    "address": "Mariannenplatz 2A, 10997 Berlin",
    "info": "Bethanien-Südflügel, Eingang rechts<br>",
    "www": "http://www.newyorck.net",
    "email": "mailto:newyorck@so36.net",
    "telephone": "       ",
    "coordinates": [
      13.4244396,
      52.50384099999999
    ]
  },
  {
    "name": "NFJ Laden",
    "full_address": "Gryphiusstraße 23, 10245 Berlin",
    "address": "Gryphiusstraße 23, 10245 Berlin",
    "info": "<br>",
    "email": "mailto:info@naturfreundejugend-berlin.de",
    "telephone": "    ",
    "coordinates": [
      13.4636463,
      52.5091654
    ]
  },
  {
    "name": "NGBK",
    "full_address": "Oranienstrasse 25, 10999 Berlin(U-Bhf. Kottbusser Tor)",
    "address": "Oranienstrasse 25, 10999 Berlin",
    "info": "Neue Gesellschaft für Bildende Kunst<br>",
    "www": "http://www.ngbk.de",
    "telephone": "    Tel.: 030-6153031   Fax: 6152290   ",
    "coordinates": [
      13.4206563,
      52.5010652
    ]
  },
  {
    "name": "Offene Werkstatt",
    "full_address": "Liebigstr. 34 (hinter dem XB), 10247 Berlin",
    "address": "Liebigstr. 34 , 10247 Berlin",
    "info": "Holz, Metall, Fahrräder<br>jeweils 18:00-20:00<br>\nMi: Holz- und Schweissarbeiten<br>\nDo: Holz-, Schweiss- und Fahrradwerkeln",
    "email": "mailto:waergstatt@gmx.de",
    "telephone": "    ",
    "coordinates": [
      13.45694,
      52.51813
    ]
  },
  {
    "name": "oh 21",
    "full_address": "Oranienstr.21, 10999 Berlin(U-Bhf. Kottbusser Tor)",
    "address": "Oranienstr.21, 10999 Berlin",
    "info": "linker Buchladen<br>",
    "www": "http://www.oh21.de",
    "telephone": "    Tel.: 030-6152226   ",
    "coordinates": [
      13.4217035,
      52.5007792
    ]
  },
  {
    "name": "Omayra",
    "full_address": "Engeldamm 68, 10179 Berlin(U8 Heinrich-Heine-Strasse)",
    "address": "Engeldamm 68, 10179 Berlin",
    "info": "internat. Jugend-/Kultur- und Bildungszentrum<br>Di 19:30 Politfilme, ab und zu Veranstaltungen, Kicker",
    "telephone": " ",
    "coordinates": [
      13.4207957,
      52.5059917
    ]
  },
  {
    "name": "Open Space",
    "full_address": "Adalbertstr. 32, 10179 Berlin(U-Bhf. Kottbusser Tor /Heinrich-Heine-Strasse)",
    "address": "Adalbertstr. 32, 10179 Berlin",
    "info": "<br>Do 20:00 Vokü mit Überraschung<br>\nFr 20:00 Life-Kunst und Bar (Beginn 21:00 Uhr)<br>\nJeden 1. Mittwoch im Monat: Parteiküche der KPD/RZ",
    "www": "http://www.openspace32.de",
    "email": "mailto:info@openspace32.de",
    "telephone": "       Tel.: 030-23459820   ",
    "coordinates": [
      13.4232586,
      52.5065508
    ]
  },
  {
    "name": "Papiertiger",
    "full_address": "Cuvrystr. 25, 10997 Berlin",
    "address": "Cuvrystr. 25, 10997 Berlin",
    "info": "Archiv und Bibliothek\n<br>Mo und Do 14:30-18:00<br>\njeden letzten Fr im Monat 14:30-18:00 Frauentag (<a href=\"mailto:papiertigerin@gmx.net\">Mailkontakt</a> zum Frauenarchiv)<br>\nZusätzliche Termine nach Vereinbarung möglich.",
    "www": "http://www.archiv-papiertiger.de",
    "email": "mailto:papier.tiger@web.de",
    "telephone": "       Tel.: 030-6183051   ",
    "coordinates": [
      13.44257,
      52.49683
    ]
  },
  {
    "name": "PiratInnen Radio Berlin UKW 95.2",
    "full_address": "in Berlin UKW 95.2, mono, 1000 Berlin(Radio anmachen, auf UKW 95,2 drehen, auf mono stellen und genießen.)",
    "address": "in Berlin UKW 95.2, mono, 1000 Berlin",
    "info": "Piratinnen Radio Berlin UKW 95,4 <br>jeden Freitag von 18h bis 20h. Manchmal laenger ...",
    "telephone": " ",
    "coordinates": [
      13.404954,
      52.52000659999999
    ]
  },
  {
    "name": "Platz-Bar",
    "full_address": "Köpenicker Strasse 137, 10179 Berlin",
    "address": "Köpenicker Strasse 137, 10179 Berlin",
    "info": "Wagenburg neben der Köpi<br>Kneipe jeden Mi + So ab 20:00",
    "telephone": " ",
    "coordinates": [
      13.4265271,
      52.5081893
    ]
  },
  {
    "name": "Potse",
    "full_address": "Potsdamer Str. 180, 10783 Berlin(S1/S2/S25 Yorkstr. / U7 Kleistpark)",
    "address": "Potsdamer Str. 180, 10783 Berlin",
    "info": "<br>Di 19:00-20.00 offenes Plenum (während des Plenums: Fotolabor; ohne Anleitung im Moment. Leute die Lust und Ahnung haben einfach melden)<br>\nDo 21:00 Punkrocktresen<br>\nFr oder/und Sa Konzerte oder/und Partys<br>\nDer Eintritt ist immer frei!",
    "www": "http://www.potse-berlin.de",
    "email": "mailto:potse@web.de",
    "telephone": "       Tel.: 030-78762693   ",
    "coordinates": [
      13.3606,
      52.49386
    ]
  },
  {
    "name": "Projekt-Archiv",
    "full_address": "Lychener Strasse 60, 10437 Berlin",
    "address": "Lychener Strasse 60, 10437 Berlin",
    "info": "Archiv für linke Literatur, Zeitschriften und Bücher (auch zum leihen)<br>Mi + Sa 16:00-18:00",
    "telephone": " Tel.: 030-4477008   ",
    "coordinates": [
      13.41964,
      52.54487
    ]
  },
  {
    "name": "Projektraum H48 (Neukölln)",
    "full_address": "Hermannstr. 48, 12049 Berlin(U8 Boddinstr.)",
    "address": "Hermannstr. 48, 12049 Berlin",
    "info": "2. Hinterhof, 1. Etage (bei \"Projektraum\" klingeln)<br>jeden Donnerstag ab ca. 20:00 Soli-Cocktailtresen<br>\n1. Do im Monat: Damenbar_t - FrauenLesbenTrans-Abend<br>\n2. Do im Monat: Antifaschistisches Bündnis Süd-Ost (ABSO), Autonome Neuköllner Antifa (ANA)<br>\n3. Do im Monat: Tresen ohne Name<br>\n4. Do im Monat: Undefinierbar<br>\njeden 3. Sonntag im Monat um 14:00 Fika - veganer Kuchen- und Tortenbrunch<br>\nInfos zur Raumnutzung und aktuelles: <a href=\"http://projektraum.h48.de\">projektraum.h48.de</a>",
    "www": "http://www.h48.de",
    "telephone": "    ",
    "coordinates": [
      13.42525,
      52.47841
    ]
  },
  {
    "name": "Projektwerkstatt W.u.T.",
    "full_address": "Wurzener Str. 6, 12627 Berlin(U5 Louis-Lewin-Strasse)",
    "address": "Wurzener Str. 6, 12627 Berlin",
    "info": "Archiv, Bibliothek, Rechner-Pool, Veranstaltungs- und Seminarraum und Café, fast immer Vokü<br>Mi 17:00-22.00",
    "www": "https://suburbanhell.org/wut",
    "email": "mailto:wut@suburbanhell.org",
    "telephone": "       ",
    "coordinates": [
      13.61731,
      52.54221
    ]
  },
  {
    "name": "Rattenbar",
    "full_address": "Findet mal hier mal dort statt...,  Berlin",
    "address": "Findet mal hier mal dort statt...,  Berlin",
    "info": "Für Homoratten und deren Freundinnen gibt es schlimme Punk-Transen-Shows und danach tanzbare Musik.<br>",
    "www": "http://www.rattenbar.com",
    "telephone": "    ",
    "coordinates": [
      13.404954,
      52.52000659999999
    ]
  },
  {
    "name": "Rauchhaus",
    "full_address": "Mariannenplatz 1A, 10997 Berlin(U-Bhf. Görlitzer Bahnhof, Kottbuser Tor)",
    "address": "Mariannenplatz 1A, 10997 Berlin",
    "info": "benannt nach Georg von Rauch<br>Do 19:30 Plenum (auch Raumanfragen)<br>\nMi 19:05 Vokü + Tresen im Rauchhauskeller (Eingang Bethaniendamm)",
    "www": "http://www.rauchhaus1971.de",
    "email": "mailto:contact@rauchhaus1971.de",
    "telephone": "       ",
    "coordinates": [
      13.4243,
      52.50469
    ]
  },
  {
    "name": "RAW-Tempel",
    "full_address": "Revaler Str. 99, 10245 Berlin(S-Bhf. Warschauer Strasse)",
    "address": "Revaler Str. 99, 10245 Berlin",
    "info": "Selbstverwaltetes Kultur- und Sozialprojekt<br><u>Medirat</u> (Beamtenwohnhaus): Naturheilkundliche Gesundheitsberatung gegen Spende, einfach vorbeikommen<br>\nMo 12:00-14:00<br>\nDi 11:00-13:00<br>\nMi 15:00-17:00<br>\nDo 13:00-15:00 nur für Frauenlesbentrans*<br>\nFr nach Vereinbarung<br>\nOder anrufen und was ausmachen: 53007653.",
    "www": "http://www.raw-tempel.de",
    "email": "mailto:info@raw-tempel.de",
    "telephone": "       Tel.: 030-2924695   Fax: 030-29774013   ",
    "coordinates": [
      13.4543612,
      52.50763269999999
    ]
  },
  {
    "name": "Real Deal Records",
    "full_address": "Gneisenaustr. 60, 10961 Berlin(U-Bhf. Südstern)",
    "address": "Gneisenaustr. 60, 10961 Berlin",
    "info": "Anarchistischer Platten- und Infoladen<br>Mo-Fr 14:00-20:00<br>\nSa 13:00-17:00",
    "www": "http://www.realdealpunk.de",
    "telephone": "    Tel.: 030-6944806   ",
    "coordinates": [
      13.4036958,
      52.4900338
    ]
  },
  {
    "name": "Regenbogenkino",
    "full_address": "Lausitzer Str. 22, 10999 Berlin(U-Bhf. Görlitzer Bahnhof)",
    "address": "Lausitzer Str. 22, 10999 Berlin",
    "info": "<br>",
    "telephone": " ",
    "coordinates": [
      13.4267796,
      52.4956329
    ]
  },
  {
    "name": "Rosa Rose",
    "full_address": "Garten-Eingang von der Jessnerstr. 3 oder 13, 10247 Berlin(S+U-Bhf. Frankfurter Allee)",
    "address": "Jessnerstr. 3, 10247 Berlin",
    "info": "Gemeinschaftsgarten. Ein Garten von allen für alle! Der Garten ist öffentlich zugänglich.<br>\nPostadresse: Rosa Rose, Kinzigstr. 9, 10247 Berlin<br>",
    "www": "http://www.rosarose-garten.net",
    "email": "mailto:rosarotrose@web.de",
    "telephone": "       ",
    "coordinates": [
      13.4733013,
      52.5133953
    ]
  },
  {
    "name": "Rote Insel",
    "full_address": "Mansteinstr. 10, 10783 Berlin",
    "address": "Mansteinstr. 10, 10783 Berlin",
    "info": "<br><b>Montag</b> 19:00 Küfa (vegi und Fleisch)<br>\n<b>Freitag</b> 21:00 Steinofenpizza",
    "telephone": " ",
    "coordinates": [
      13.36663,
      52.49153
    ]
  },
  {
    "name": "Rotes Café",
    "full_address": "Harnackstraße 1a, 14195 Berlin(U8 U-Bhf. Thielplatz)",
    "address": "Harnackstraße 1a, 14195 Berlin",
    "info": "Selbstorganisierter linker Freiraum und Info-Café an der FU.<br>Mo-Fr meist 10:00-18:00<br>\nMi ab 12:00 vegane Vokü",
    "www": "http://rotescafe.blogsport.de",
    "email": "mailto:plenum[at]rotescafe.de",
    "telephone": "       Tel.: 030-83856272   ",
    "coordinates": [
      13.27813,
      52.44861
    ]
  },
  {
    "name": "Sama-Café",
    "full_address": "Samariterstr. 32, 10247 Berlin(U-Bhf. Samariterstrasse)",
    "address": "Samariterstr. 32, 10247 Berlin",
    "info": "Vereinscafé von Freundinnen und Freunden des Vereins Neues Leben und Gesünder Wohnen e.V.<br>Mo 21:30 Filmclub<br>\nDi 20:00 Hacker's Lounge<br>\nMi 21:30 Filmclub<br>\nDo 20:00 Schwarze Zone<br>\nFr 20:00 im Wechsel: Killerhippies From Outta Space/Sama Alltime Favorites<br>\nSa 20:00 Saturday Night Lounge, jeden 3. Samstag im Monat: Kickerturnier<br>\nSo 19:00 Alle zwei Wochen Plenum (Gäste willkommen)",
    "www": "http://www.sama32.squat.net",
    "email": "mailto:sama32@squat.net",
    "telephone": "       Tel.: 0152-22437787   ",
    "coordinates": [
      13.46498,
      52.51683
    ]
  },
  {
    "name": "SBZ Krähenfuß",
    "full_address": "Dorotheenstr. 17, 10117 Berlin",
    "address": "Dorotheenstr. 17, 10117 Berlin",
    "info": "Selbstverwaltetes Café im Ostflügel des Hauptgebäudes der Humboldt-Uni<br>Mo 18:00 Krähenfussplenum<br>\nDi ab 16:00 LesBiSchwules Café<br>\nMi ganztags HUmmel-Antifa<br>\nDo tagsüber SaU (Seminar für angewandte Unsicherheit) und abends meist Veranstaltungen<br>\nEintritt immer frei! (Während den Semesterferien ist das Krähenfuss geschlossen!)",
    "email": "mailto:sbz-kraehenfuss@gmx.net",
    "telephone": "    Tel.: 030-20932603   ",
    "coordinates": [
      13.39315,
      52.5190479
    ]
  },
  {
    "name": "Scharni 38",
    "full_address": "Scharnweber Str. 38,  Berlin(U Samariterstraße)",
    "address": "Scharnweberstr. 38, 10247 Berlin",
    "info": "<br>",
    "telephone": " ",
    "coordinates": [
      13.46412,
      52.51289999999999
    ]
  },
  {
    "name": "Scherer8",
    "full_address": "Schererstr 8, 13347 Berlin(S+U Wedding (U6, Ringbahn), U Nauener Platz (U9))",
    "address": "Schererstr 8, 13347 Berlin",
    "info": "Hausprojekt<br>Di 14:00-17:00 BASTA! Erwerbsloseninitiative Berlin<br>\nDi 19:00 Veranstaltungsplenum in der Kneipe Eingang Schererstr.<br>\nDi 21:00 vegane Küfa und Kino<br>\nMi 10:00-13:00 BASTA! Erwerbsloseninitiative Berlin<br>\nDo 15:00-18:00 BASTA! Erwerbsloseninitiative Berlin<br>\nDo 21:00 vegane Küfa und Tresen<br>\nSo 16:00 Hausplenum in der ABB Eingang Adolfstr.<br><br>\njeden 2.+4. So 13:00: Vegan-Brunch<br><br>\njeden 1.+3. Di 19:00: Rote Hilfe",
    "www": "http://scherer8.blogsport.de",
    "email": "mailto:vak@sch8.org",
    "telephone": "       ",
    "coordinates": [
      13.36738,
      52.54841
    ]
  },
  {
    "name": "Schlie 40",
    "full_address": "Schliemannstr. 40 HH (2. Durchfahrt), 10437 Berlin",
    "address": "Schliemannstr. 40 HH , 10437 Berlin",
    "info": "<br>Di Hell's Kitchen<br>Do 20:30 Kino<br>Fr 21:00 Bar mit Programm",
    "www": "http://www.schlie40.net",
    "email": "mailto:schlie40@hotmail.com",
    "telephone": "       ",
    "coordinates": [
      13.4172,
      52.54228
    ]
  },
  {
    "name": "Schokoladen",
    "full_address": "Ackerstr. 169/170, 10115 Berlin(U8 Rosenthaler Platz)",
    "address": "Ackerstr. 169/170, 10115 Berlin",
    "info": "<br>Mo-Sa 19:00-22:00 Konzerte + DJ-Party bis Open End (ausser Di)<br>\nMo 22:00 Schokokuss - die queere Punk-Elektro-Nacht<br>\nDi 20:30 LSD - Liebe Stadt Drogen (Lesebühne)<br>\n1. So 20:30-03:00 Karaoke-Nacht mit KJ Der Käpt'n<br>\n2. So 19:00 Open Stage - Play your Songs unplugged<br>\n3. So 21:00 Cocktail Lounge (erlesen)<br>\nletzter So 20:45 Dichter als Goethe - Thilo Bock mit Gast<br>\n4. So 20:30 (unregelmässig) Schoki-Quiz",
    "www": "http://www.schokoladen-mitte.de",
    "email": "mailto:info@schokoladen-mitte.de",
    "telephone": "       Tel.: 030-2826527   ",
    "coordinates": [
      13.39659,
      52.52974
    ]
  },
  {
    "name": "Schreina47",
    "full_address": "Schreinerstr. 47, 10245 Berlin(U-Bhf. Samariterstrasse)",
    "address": "Schreinerstr. 47, 10245 Berlin",
    "info": "Projekträume mit free Billard und Kicker (auf Anfrage stehen die Projekträume für Soli-Veranstaltungen, Lesungen, Kultur usw. zur Verfügung)<br>Mi+Do 20:00 Vokü und teilw. Veranstaltungen<br>\nSa 20:00 Jugendantifaabend<br>\nDi 20:00 Antifa-Soli-Abend<br>\n1.+3. Di 20:00 Spieleabend und Vokü<br>\n4. Di 20:00 KSAG Abend und Vokü<br>\n1.+3. Do Guerrillera-Abend und Vokü<br>\n2. Do Beathaus mit Vokü<br>\njeden letzten Do Sweet Sensation (Ska/Rocksteady - Live-DJs, tanzen, Vokü)",
    "email": "mailto:schreina47@web.de",
    "telephone": "    ",
    "coordinates": [
      13.46743,
      52.51732999999999
    ]
  },
  {
    "name": "Schwarze Risse (im Mehringhof)",
    "full_address": "Gneisenaustr. 2a, 10961 Berlin(U-Bhf. Mehringdamm)",
    "address": "Gneisenaustr. 2a, 10961 Berlin",
    "info": "Buchladen<br>Mo-Fr 10:00-18:30, Sa 11:00-14:00. Eine Aussenstelle des Buchladens gibt es in der Kastanienallee 85 (Prenzlauer Berg).",
    "www": "http://www.schwarzerisse.de",
    "email": "mailto:schwarze_risse@t-online.de",
    "telephone": "       Tel.: 030-6928779   ",
    "coordinates": [
      13.3884225,
      52.49191769999999
    ]
  },
  {
    "name": "Schwarzer Kanal",
    "full_address": "Kiefholzstr. 74, 12057 Berlin(S-Bhf. Treptower Park)",
    "address": "Kiefholzstr. 74, 12057 Berlin",
    "info": "Queer-Wagenplatz (war früher am Spreeufer, musste aber dort aufgrund eines verdi-Neubaus weichen)<br>",
    "www": "http://www.schwarzerkanal.squat.net",
    "email": "mailto:schwarzer-kanal@web.de",
    "telephone": "       ",
    "coordinates": [
      13.4623933,
      52.4820746
    ]
  },
  {
    "name": "SfE",
    "full_address": "Mehringhof, Gneisenaustr. 2a, 10961 Berlin",
    "address": "Mehringhof, Gneisenaustr. 2a, 10961 Berlin",
    "info": "Selbstverwaltete Schule für Erwachsenenbildung<br>Bürozeiten Mo, Di und Do von 10:00 bis 13:00. \nIn den Ferien geschlossen.",
    "www": "http://www.sfeberlin.de",
    "telephone": "    Tel.: 030-6937048   Fax: 030-6937049   ",
    "coordinates": [
      13.3884225,
      52.49191769999999
    ]
  },
  {
    "name": "SO36",
    "full_address": "Oranienstr. 190, 10999 Berlin(U1 Kottbusser Tor, Görlitzer Bahnhof)",
    "address": "Oranienstr. 190, 10999 Berlin",
    "info": "<br>",
    "www": "http://www.so36.de",
    "email": "mailto:info@so36.de",
    "telephone": "       Tel.: 030-61401306   Fax: 030-61609268   ",
    "coordinates": [
      13.4218758,
      52.50093409999999
    ]
  },
  {
    "name": "SOFA (Bethanien)",
    "full_address": "Mariannenplatz 2, 10997 Berlin(U-Bhf. Görlitzer Bahnhof)",
    "address": "Mariannenplatz 2, 10997 Berlin",
    "info": "Selbstverwaltetes Offenes Forum der AnwohnerInnen im Bethanien (direkt am Bethanien-Haupteingang links)<br>",
    "www": "http://sofa-im-bethanien.blogspot.com",
    "email": "mailto:kfm@bethanien.info",
    "telephone": "       ",
    "coordinates": [
      13.4244396,
      52.50384099999999
    ]
  },
  {
    "name": "Spinnboden",
    "full_address": "Anklamer Str. 38, 10115 Berlin(U8 Bernauerstrasse)",
    "address": "Anklamer Str. 38, 10115 Berlin",
    "info": "Lesbenarchiv e.V. und Bibliothek, sowie vielfältige Veranstaltungen und Gruppen. FrauenLesbenTrans-Raum.<br>",
    "www": "http://www.spinnboden.de",
    "email": "mailto:spinnboden@spinnboden.de",
    "telephone": "       Tel.: 030-4485848   ",
    "coordinates": [
      13.3992801,
      52.5353179
    ]
  },
  {
    "name": "SPK/PF(M)",
    "full_address": "Postfach 620 668, 10796 Berlin",
    "address": "Postfach 620 668, 10796 Berlin",
    "info": "Patientenfront/Sozialistisches Patientenkollektiv; Pathopraktik und ständige Arbeitskreise zum alle und alles umfassenden Thema Revolution kraft Krankheit.\n<br>",
    "www": "http://www.spkpfh.de",
    "telephone": "    ",
    "coordinates": [
      13.404954,
      52.52000659999999
    ]
  },
  {
    "name": "Subversiv",
    "full_address": "Brunnenstr. 7 HH, 10119 Berlin(U-Bhf. Rosenthaler Platz)",
    "address": "Brunnenstr. 7 HH, 10119 Berlin",
    "info": "<br>Mi 20:00 vegane Vokü mit Punktresen",
    "telephone": " ",
    "coordinates": [
      13.4006517,
      52.5307682
    ]
  },
  {
    "name": "Supamolly",
    "full_address": "Jessnerstr. 41, 10247 Berlin(U + S - Bhf. Frankfurter Allee)",
    "address": "Jessnerstr. 41, 10247 Berlin",
    "info": "Kneipe und Konzerte, Café und Kuchen<br>Di-So ab 20:00 Kneipe<br>\nSo ab 16:00 Kaffee und Kuchen<br>\nDi Kino ab 21:00; dienstags auch Cocktailbar",
    "www": "http://supamolli.de/molli.swf",
    "email": "mailto:info@supamolly.de",
    "telephone": "       Tel.: 030-29007294   ",
    "coordinates": [
      13.47147,
      52.5107
    ]
  },
  {
    "name": "Syndikat",
    "full_address": "Weisestr. 56, 12049 Berlin(U-Bhf. Boddinstrasse)",
    "address": "Weisestr. 56, 12049 Berlin",
    "info": "<br>Kneipe täglich ab 20:00<br>\nmonatlich Soliparty",
    "www": "http://www.syndikat44.net",
    "telephone": "    Tel.: 030-6216774   ",
    "coordinates": [
      13.4239221,
      52.4782326
    ]
  },
  {
    "name": "Systemfehler",
    "full_address": "Jessnerstr. 41, 10247 Berlin(S/U Frankfurter Allee)",
    "address": "Jessnerstr. 41, 10247 Berlin",
    "info": "Regelmäßiges: Schenkladen, Café Maschinen(t)raum, Meditationsabend, Zeichenkurs, öko-anarchistische Filmreihe.<br>\nUnregelmäßiges: auch gerne, unser Blog ist aktuell.<br>\nEintritt immer frei, alles auf Spendenbasis.<br>Fr 15:00-18:00 veganes Schenkcafé",
    "www": "http://www.systemfehler-berlin.de.vu",
    "email": "mailto:systemfehler-berlin(at)web.de",
    "telephone": "       Tel.: 030-536 75 460   ",
    "coordinates": [
      13.47147,
      52.5107
    ]
  },
  {
    "name": "Tante Horst",
    "full_address": "Oranienstr. 45, 10969 Berlin(U-Bhf. Kottbusser Tor)",
    "address": "Oranienstr. 45, 10969 Berlin",
    "info": "Likörchenkollektiv<br>Di-Fr 12:30 bis open end<br>\nSa+So 12:00 bis open end<br>\nSo 12:00-16:00 vegan vegetarisches Frühstücksbuffet",
    "www": "http://www.tantehorst.de",
    "email": "mailto:info@tantehorst.de",
    "telephone": "       Tel.: 030-39509022   ",
    "coordinates": [
      13.4141423,
      52.5029438
    ]
  },
  {
    "name": "Tausendundeinbuch",
    "full_address": "Gneisenaustr. 60, 10961 Berlin",
    "address": "Gneisenaustr. 60, 10961 Berlin",
    "info": "linker Buchladen<br>",
    "email": "mailto:tausendundeinbuch@yahoo.de",
    "telephone": "    Tel.: 030-6914690   ",
    "coordinates": [
      13.4036958,
      52.4900338
    ]
  },
  {
    "name": "TEK",
    "full_address": "Köpenicker Str. 189, 10997 Berlin(U-Bhf. Schlesisches Tor)",
    "address": "Köpenicker Str. 189, 10997 Berlin",
    "info": "Jugendladen<br>",
    "www": "http://www.tek36.de",
    "email": "mailto:tek-jugendladen@t-online.de",
    "telephone": "       Tel.: 030-6149892   ",
    "coordinates": [
      13.4398978,
      52.501911
    ]
  },
  {
    "name": "Tempest Library",
    "full_address": "Reichenberger Str. 63a, 10999 Berlin(U-Bhf. Görlitzer Bahnhof)",
    "address": "Reichenberger Str. 63a, 10999 Berlin",
    "info": "Multi-lingual anarchist infoshop and lending library.<br>Di/Do 16:00-20:00<br>\njeden 4. Di im Monat 16:00-20:00 Schreibwerkstatt (Gefangenen schreiben)<br>\nSo 14:00-18:00",
    "www": "http://tempestlibrary.com",
    "telephone": "    ",
    "coordinates": [
      13.43056,
      52.49525
    ]
  },
  {
    "name": "Tommy-Weisbecker-Haus",
    "full_address": "Wilhelmstr. 9, 10963 Berlin(U-Bhf. Hallesches Tor)",
    "address": "Wilhelmstr. 9, 10963 Berlin",
    "info": "<br>Schicksaal<br>\nKonzerte ab 21:00 (<a href=\"http://www.schicksaal.tommyhaus.org\">Konzertkalender</a>)<br>\nDi 18:00 Kiez Cuisine Café<br>\n<br>\nLinie 1<br>\nDi: Punrocktresen<br>\njeden 1. Fr 21:00 Reggae X-Plosion (Ska-, Rock Steady-, Reggae Classics)<br>\njeden letzten Fr 21:00 Surf &amp; Roll (50's, 60's-Rockin' &amp; Rollin'-Niter)<br>\n<br>\nÖffnungszeiten Café:<br>\nMo-Do, So ab 18:00<br>\nFr./Sa. ab 16:00",
    "www": "http://tommyhaus.org/",
    "email": "mailto:websista@tommyhaus.org",
    "telephone": "       Tel. + Fax: 030-2512943   ",
    "coordinates": [
      13.38888,
      52.5015
    ]
  },
  {
    "name": "Treffpunkt: Vor dem Haupteingang der Volksbühne",
    "full_address": ",  Berlin(U Rosa-Luxemburg-Platz)",
    "address": ",  Berlin",
    "info": "<br>",
    "telephone": " ",
    "coordinates": [
      13.404954,
      52.52000659999999
    ]
  },
  {
    "name": "Tristeza",
    "full_address": "Pannierstr. 5, 12047 Berlin(U Hermannplatz)",
    "address": "Pannierstr. 5, 12047 Berlin",
    "info": "Kneipenkollektiv<br>Anfragen bzgl. politischer und kultureller Veranstaltungen, Ausstellungen oder Sonstigem sind willkommen an <a href=\"mailto:kultur@tristeza.org\">kultur@tristeza.org</a>.\n<br><br>\nÖffnungszeiten:<br>\nMo-Fr ab 18:00<br>\nSa/So ab 15:00<br>\nDo 18:00: FLT-Kickern<br>\nFr 19:00-20:00 Sprechstunde der Lautigruppe (Voranfragen und Kontakt unter <a href=\"mailto:lauti@squat.net\">lauti@squat.net</a>)",
    "www": "http://tristeza.org",
    "email": "mailto:info@tristeza.org",
    "telephone": "       ",
    "coordinates": [
      13.4312,
      52.48642
    ]
  },
  {
    "name": "Tuntenhaus",
    "full_address": "Kastanienalle 86, 2. HH, 10435 Berlin(U-Bhf. Eberswalder Strasse)",
    "address": "Kastanienalle 86, 2. HH, 10435 Berlin",
    "info": "<br>",
    "www": "http://tuntenhaus-berlin.de",
    "email": "mailto:tuntenhaus@gmx.net",
    "telephone": "       ",
    "coordinates": [
      13.4093,
      52.53758
    ]
  },
  {
    "name": "Turm (Neukölln)",
    "full_address": "Werbellinstr. 50, 12053 Berlin(U8 Boddinstr., U7 Rathaus Neukölln)",
    "address": "Werbellinstr. 50, 12053 Berlin",
    "info": "<br>",
    "email": "mailto:turm.ev@googlemail.de",
    "telephone": "    ",
    "coordinates": [
      13.4295559,
      52.4784211
    ]
  },
  {
    "name": "UBI KLiZ e.V. Mieterladen",
    "full_address": "Kreutzigerstr. 23, 10247 Berlin(U-Bhf. Samariterstraße)",
    "address": "Kreutzigerstr. 23, 10247 Berlin",
    "info": "Kommunikationstreff mit Beratungsangeboten und Veranstaltungen aller Art. Politik von unten ohne starre Öffnungszeiten (außer Mieter- und Sozialberatung).<br>",
    "www": "http://www.ubi-mieterladen.de",
    "email": "mailto:mieterladen@gmx.de",
    "telephone": "       Tel.: 030-74078831 (auch Fax)   ",
    "coordinates": [
      13.4605644,
      52.51373520000001
    ]
  },
  {
    "name": "Umbruch",
    "full_address": "Lausitzerstr. 10, 10999 Berlin(U Görlitzer Bahnhof)",
    "address": "Lausitzerstr. 10, 10999 Berlin",
    "info": "Bildarchiv und Layoutgestaltung<br>Mo-Fr ab 11:00",
    "www": "http://www.umbruch-bildarchiv.de",
    "email": "mailto:post@umbruch-bildarchiv.de",
    "telephone": "       Tel.: 030-6123037   Fax: 030-6111583   ",
    "coordinates": [
      13.42848,
      52.49741
    ]
  },
  {
    "name": "V36",
    "full_address": "Voigstr. 36, 10247 Berlin(U Samariterstr., Frankfurter Allee)",
    "address": "Voigstr. 36, 10247 Berlin",
    "info": "Vereinsräume des V36 e.V.<br>Mo 20:00 Montagsphobie (vegane Burgervokü und Bar)",
    "telephone": " ",
    "coordinates": [
      13.46778,
      52.51638000000001
    ]
  },
  {
    "name": "Vetomat",
    "full_address": "Scharnweberstr. 35, 10247 Berlin(U-Bhf. Samariterstrasse)",
    "address": "Scharnweberstr. 35, 10247 Berlin",
    "info": "Café und Siebdruckwerkstatt<br>Mo 20:00 Kino<br>\nMi 20:00 vegi/vegane Vokü<br>\nDo 20:00 freies Kino und Vokü<br>\njeden 3. Do im Monat 20:00 Antifa-Tresen<br>\njeden 1.+3. Sa im Monat 12:00-16:00 vegi/veganer kalt/warmer Brunch<br>\nSo 15:00 Siebdruckworkshop",
    "www": "http://www.vetomat.net",
    "email": "mailto:info@vetomat.net",
    "telephone": "       ",
    "coordinates": [
      13.46312,
      52.51300999999999
    ]
  },
  {
    "name": "Villa Kuriosum",
    "full_address": "Scheffelstr. 21, 10367 Berlin(S/U Storkowerstr., Frankfurter Allee)",
    "address": "Scheffelstr. 21, 10367 Berlin",
    "info": "Selbstverwalter Raum für Kunst und Kultur<br>jeden 2. Di im Monat: Scharni 29 Soli-Tresen mit Vokü<br>\njeden Do 20:00 Minibar mit Vokü<br>\njeden So 14:00-20:00 Kaffee und Kuchen im Garten",
    "www": "http://villakuriosum.net",
    "email": "mailto:villakuriosum@googlemail.com",
    "telephone": "       ",
    "coordinates": [
      13.47323,
      52.52023
    ]
  },
  {
    "name": "Wagenburg Lohmühle",
    "full_address": "Lohmühlenstr. 17, 12435 Berlin(Görli Ostende)",
    "address": "Lohmühlenstr. 17, 12435 Berlin",
    "info": "<br>So ab 15:00 Uhr Café<br>\nFr Open Air Kino",
    "www": "http://www.lohmuehle-berlin.de",
    "telephone": "    ",
    "coordinates": [
      13.4434216,
      52.4927396
    ]
  },
  {
    "name": "Wagendorf Wuhlheide",
    "full_address": "An der Wuhlheide 131b, 12459 Berlin(S3 Wuhlheide)",
    "address": "An der Wuhlheide 131b, 12459 Berlin",
    "info": "<br>Jeden Di ab 16:35 Punkrock-Tresen",
    "www": "http://wagendorf-wuhlheide.blogspot.de",
    "telephone": "    ",
    "coordinates": [
      13.53654,
      52.46544
    ]
  },
  {
    "name": "WB13",
    "full_address": "Am Berl 13, 13051 Berlin(S-Bhf. Wartenberg)",
    "address": "Am Berl 13, 13051 Berlin",
    "info": "<br>jeden <b>Mittwoch</b> 21:00-24:00<br>\njeden <b>Sonntag</b> 15:00-24:00<br>\njeden <b>Freitag</b> 13:00-18:00 Lesecafé mit der Möglichkeit Bücher zu leihen",
    "www": "http://www.wb13.org",
    "email": "mailto:info@wb13.org",
    "telephone": "       Tel.: 030-9280815   Fax: 030-263917301086   ",
    "coordinates": [
      13.50039,
      52.57418999999999
    ]
  },
  {
    "name": "X-B-Liebig",
    "full_address": "Liebigstr. 34, 10247 Berlin(U-Bhf. Frankfurter Tor)",
    "address": "Liebigstr. 34, 10247 Berlin",
    "info": "Autonomes, feministisches Bar-Kollektiv im Hausprojekt Liebig34<br>Mo 21:00 FrauenLesbenTrans*Bar<br>\nDi 21:00 Delikatessen-KüfA (vegan)<br>\nMi 21:00 Punk-Bar mit KüfA (vegan)",
    "www": "http://www.xb.blogsport.de",
    "telephone": "    ",
    "coordinates": [
      13.45694,
      52.51813
    ]
  },
  {
    "name": "ZGK",
    "full_address": "Scharnweberstr. 38, 10247 Berlin(U-Bhf. Samariterstrasse)",
    "address": "Scharnweberstr. 38, 10247 Berlin",
    "info": "<br>",
    "www": "http://zgk.blogsport.de",
    "telephone": "    ",
    "coordinates": [
      13.46412,
      52.51289999999999
    ]
  },
  {
    "name": "Zielona Gora",
    "full_address": "Grünbergerstr. 73, 10245 Berlin(U-Bhf. Samariterstrasse)",
    "address": "Grünbergerstr. 73, 10245 Berlin",
    "info": "<br><u>Montag:</u> jeden 1. Mo 20:30 Internationalistischer Abend<br>\n<u>Dienstag:</u> jeden Di 16:30 Corax - Der offene Lernraum; 21:05 Filmstube<br>\n<u>Mittwoch:</u> 1. Mi 20:00 Roter Abend; 3. Mi 20:00 Migration State of Mind (Infoveranstaltung oder Kino, Küfa)<br>\n<u>Donnerstag:</u> jeden Do 14:00 Literatur und Lesecafé; 18:00 politisches Café<br>\njeden 1. Do 20:00 Samahuset im Exil-Tresen mit veganer Vokü; 3. Do 20:00 NoBorders-Tresen + vegane Pizza; 4. Do 20:00 Metal-Tresen + vegane Vokü<br>\n<u>Freitag:</u> jeden 1. Fr 21:47 Freitags Abend Solispieleabend; 3. Fr 20:00 Solitresen ABC Polen; 4. Fr 20:00 Internationalistischer Abend<br>\n<u>Samstag:</u> jeden 2. Sa 12:15 Solibrunch (vegan/veget.); jeden 2. Sa 20:00 FAU Solitresen; jeden 3. Sa 15:00 Kinderkino; fast jeden 3. Sa 22:00 Kiez-/Soliparty; jeden 4. Sa 19:00 Soligruppe Petrogo<br>\n<u>Sonntag:</u> jeden So 19:00 vegane Vokü; jeden 2. So 19:00 vegane Solivokü (für externe Gruppen)",
    "telephone": " Tel.: 030-2922471   ",
    "coordinates": [
      13.4596089,
      52.51146
    ]
  },
  {
    "name": "Zwille",
    "full_address": "Fasanenstr. 1, 10623 Berlin(U2 Ernst-Reuter-Platz, U/S Zoologischer Garten)",
    "address": "Fasanenstr. 1, 10623 Berlin",
    "info": "TU Berlin, Südcampus, Z-Gebäude, 3. OG\nFasanenstr. 1, Ecke Müller-Breslaustr. Offen für alle, die offen sind (Nachfolgeprojekt der VillaBEL-Besetzung)<br>Initiativenbüro, autonome Seminare, emanzipative Veranstaltungen, selbstorganisierte Räume zum Lernen und Leben.",
    "www": "http://www.zwille.org",
    "email": "mailto:dieueblichenverdaechtigen@gmx.de",
    "telephone": "       ",
    "coordinates": [
      13.3301997,
      52.5111729
    ]
  }
]